[{"NPS_id":"99907F85-7E09-40FE-BF5E-A9AB7F09A7E2","url":"https://www.nps.gov/bicr/index.htm","fullName":"Birmingham Civil Rights National Monument","parkCode":"bicr","latitude":"33.5154266357","longitude":"-86.814666748","states":["AL"],"designation":"National Monument"},{"NPS_id":"FFEB6894-949B-4C17-924D-646B63966718","url":"https://www.nps.gov/frri/index.htm","fullName":"Freedom Riders National Monument","parkCode":"frri","latitude":"33.635269165","longitude":"-85.9064331055","states":["AL"],"designation":"National Monument"},{"NPS_id":"7565F317-EA13-4E07-9059-D6831CA7E4A9","url":"https://www.nps.gov/hobe/index.htm","fullName":"Horseshoe Bend National Military Park","parkCode":"hobe","latitude":"32.97668879","longitude":"-85.73413589","states":["AL"],"designation":"National Military Park"},{"NPS_id":"C03CF86E-BFB5-470E-AFF3-C1798A61FFE5","url":"https://www.nps.gov/liri/index.htm","fullName":"Little River Canyon National Preserve","parkCode":"liri","latitude":"34.41461863","longitude":"-85.61734327","states":["AL"],"designation":"National Preserve"},{"NPS_id":"3ACC9199-1234-4E50-B80E-65DB783B4BB7","url":"https://www.nps.gov/natt/index.htm","fullName":"Natchez Trace National Scenic Trail","parkCode":"natt","latitude":"34.330290333","longitude":"-88.7100104094","states":["AL","MS","TN"],"designation":"National Scenic Trail"},{"NPS_id":"E8A0F0B6-983F-4B9A-9A67-BFF6F9E4204A","url":"https://www.nps.gov/natr/index.htm","fullName":"Natchez Trace Parkway","parkCode":"natr","latitude":"33.78002293","longitude":"-89.03092439","states":["AL","MS","TN"],"designation":"Parkway"},{"NPS_id":"FDD929A5-1D56-41DD-8A04-5FF77023340C","url":"https://www.nps.gov/ruca/index.htm","fullName":"Russell Cave National Monument","parkCode":"ruca","latitude":"34.97402063","longitude":"-85.81560314","states":["AL"],"designation":"National Monument"},{"NPS_id":"F5676388-94E5-45D2-8A51-344C825F5C12","url":"https://www.nps.gov/semo/index.htm","fullName":"Selma To Montgomery National Historic Trail","parkCode":"semo","latitude":"32.27082092","longitude":"-86.72823702","states":["AL"],"designation":"National Historic Trail"},{"NPS_id":"07A92FEB-682E-4895-8070-3323BC6F9EF7","url":"https://www.nps.gov/trte/index.htm","fullName":"Trail Of Tears National Historic Trail","parkCode":"trte","latitude":"36.0530021046","longitude":"-89.6761041963","states":["AL","AR","GA","IL","KY","MO","NC","OK","TN"],"designation":"National Historic Trail"},{"NPS_id":"5AAB8CB5-2F62-4BD7-82D1-E19963FA94C1","url":"https://www.nps.gov/tuai/index.htm","fullName":"Tuskegee Airmen National Historic Site","parkCode":"tuai","latitude":"32.45538671","longitude":"-85.67983321","states":["AL"],"designation":"National Historic Site"},{"NPS_id":"3A9B0972-7F97-4F8C-9B44-A5FA8DEB1AC1","url":"https://www.nps.gov/tuin/index.htm","fullName":"Tuskegee Institute National Historic Site","parkCode":"tuin","latitude":"32.42962115","longitude":"-85.70488498","states":["AL"],"designation":"National Historic Site"},{"NPS_id":"C4E1A9A4-D121-4734-94FA-7788A93C2AAA","url":"https://www.nps.gov/alag/index.htm","fullName":"Alagnak Wild River","parkCode":"alag","latitude":"59.05180188","longitude":"-156.112002","states":["AK"],"designation":"Wild River"},{"NPS_id":"7D6098F9-3F75-4775-A56D-CD9C7F9A9488","url":"https://www.nps.gov/anch/index.htm","fullName":"Alaska Public Lands","parkCode":"anch","latitude":"61.2188","longitude":"-149.894536","states":["AK"],"designation":""},{"NPS_id":"94B046DC-2AFD-4ECB-A60D-CE210A8550B1","url":"https://www.nps.gov/aleu/index.htm","fullName":"Aleutian Islands World War II National Historic Area","parkCode":"aleu","latitude":"53.9143","longitude":"-166.5197","states":["AK"],"designation":"National Historic Area"},{"NPS_id":"7FF37F14-88C8-469E-A447-ACE6D9AF44D2","url":"https://www.nps.gov/ania/index.htm","fullName":"Aniakchak National Monument & Preserve","parkCode":"ania","latitude":"56.85317675","longitude":"-157.5544362","states":["AK"],"designation":"National Monument & Preserve"},{"NPS_id":"EE1F4878-00FB-4760-A77F-EA76DB8DEFD9","url":"https://www.nps.gov/bela/index.htm","fullName":"Bering Land Bridge National Preserve","parkCode":"bela","latitude":"65.96087902","longitude":"-164.4086432","states":["AK"],"designation":"National Preserve"},{"NPS_id":"77566B98-D9CC-40FB-AA6E-FAA0F56E2059","url":"https://www.nps.gov/cakr/index.htm","fullName":"Cape Krusenstern National Monument","parkCode":"cakr","latitude":"67.41499986","longitude":"-163.5037786","states":["AK"],"designation":"National Monument"},{"NPS_id":"C0BF2A42-E353-4FAE-B4C4-AA0676B58100","url":"https://www.nps.gov/dena/index.htm","fullName":"Denali National Park & Preserve","parkCode":"dena","latitude":"63.29777484","longitude":"-151.0526568","states":["AK"],"designation":"National Park & Preserve"},{"NPS_id":"BC195D18-71C8-4A99-BF8E-10BFAB849679","url":"https://www.nps.gov/gaar/index.htm","fullName":"Gates Of The Arctic National Park & Preserve","parkCode":"gaar","latitude":"67.75961636","longitude":"-153.2917758","states":["AK"],"designation":"National Park & Preserve"},{"NPS_id":"3682DBDE-6746-4979-86CC-2358C5B72661","url":"https://www.nps.gov/glba/index.htm","fullName":"Glacier Bay National Park & Preserve","parkCode":"glba","latitude":"58.80086718","longitude":"-136.8407579","states":["AK"],"designation":"National Park & Preserve"},{"NPS_id":"622B7696-B7D8-41D8-A3C9-C82A60D0CD12","url":"https://www.nps.gov/inup/index.htm","fullName":"Iñupiat Heritage Center","parkCode":"inup","latitude":"71.29832445","longitude":"-156.7535863","states":["AK"],"designation":""},{"NPS_id":"B712CB0C-B3DD-48A6-AA4F-CCD72C87F48B","url":"https://www.nps.gov/katm/index.htm","fullName":"Katmai National Park & Preserve","parkCode":"katm","latitude":"58.62235668","longitude":"-155.0126574","states":["AK"],"designation":"National Park & Preserve"},{"NPS_id":"11E73438-0CCC-4441-A76A-1995F67F2D89","url":"https://www.nps.gov/kefj/index.htm","fullName":"Kenai Fjords National Park","parkCode":"kefj","latitude":"59.81804414","longitude":"-150.106502","states":["AK"],"designation":"National Park"},{"NPS_id":"5D4AA834-B601-44A8-B786-FF3306BA8A39","url":"https://www.nps.gov/klgo/index.htm","fullName":"Klondike Gold Rush National Historical Park","parkCode":"klgo","latitude":"59.61042373","longitude":"-135.2618535","states":["AK"],"designation":"National Historical Park"},{"NPS_id":"691831BF-F280-4E02-BF4A-FF476BC66B23","url":"https://www.nps.gov/kova/index.htm","fullName":"Kobuk Valley National Park","parkCode":"kova","latitude":"67.35631336","longitude":"-159.2002293","states":["AK"],"designation":"National Park"},{"NPS_id":"5F76F85B-23F4-4616-AA0B-A26E8DE76593","url":"https://www.nps.gov/lacl/index.htm","fullName":"Lake Clark National Park & Preserve","parkCode":"lacl","latitude":"60.57405857","longitude":"-153.55535","states":["AK"],"designation":"National Park & Preserve"},{"NPS_id":"C9AA17CC-3152-464A-A9E2-494368086045","url":"https://www.nps.gov/noat/index.htm","fullName":"Noatak National Preserve","parkCode":"noat","latitude":"68.01027053","longitude":"-159.831694","states":["AK"],"designation":"National Preserve"},{"NPS_id":"6258CAD9-1932-4A40-8FA1-891C51978345","url":"https://www.nps.gov/sitk/index.htm","fullName":"Sitka National Historical Park","parkCode":"sitk","latitude":"57.04718173","longitude":"-135.3156876","states":["AK"],"designation":"National Historical Park"},{"NPS_id":"B7944940-3FE5-4F9B-80AB-2FD78A4CDD48","url":"https://www.nps.gov/wrst/index.htm","fullName":"Wrangell - St Elias National Park & Preserve","parkCode":"wrst","latitude":"61.4182147","longitude":"-142.6028439","states":["AK"],"designation":"National Park & Preserve"},{"NPS_id":"6F550E4D-AE26-4250-A674-397E2DF88092","url":"https://www.nps.gov/yuch/index.htm","fullName":"Yukon - Charley Rivers National Preserve","parkCode":"yuch","latitude":"65.0935608","longitude":"-142.7960021","states":["AK"],"designation":"National Preserve"},{"NPS_id":"6E71B72E-4F2F-495D-9225-A6634E6C2EB1","url":"https://www.nps.gov/npsa/index.htm","fullName":"National Park of American Samoa","parkCode":"npsa","latitude":"-14.22865935","longitude":"-169.8503777","states":["AS"],"designation":""},{"NPS_id":"869BAD2B-C46F-4FEB-891B-EBA119B64B48","url":"https://www.nps.gov/cach/index.htm","fullName":"Canyon de Chelly National Monument","parkCode":"cach","latitude":"36.14319567","longitude":"-109.3388303","states":["AZ"],"designation":"National Monument"},{"NPS_id":"FF6B2CDF-10F5-4A7F-9437-74C1E7104C65","url":"https://www.nps.gov/cagr/index.htm","fullName":"Casa Grande Ruins National Monument","parkCode":"cagr","latitude":"32.99702582","longitude":"-111.5325383","states":["AZ"],"designation":"National Monument"},{"NPS_id":"E98D419A-A118-49D5-89AF-3C4F9BE7372D","url":"https://www.nps.gov/chir/index.htm","fullName":"Chiricahua National Monument","parkCode":"chir","latitude":"32.01214618","longitude":"-109.341607","states":["AZ"],"designation":"National Monument"},{"NPS_id":"6ED827FD-EA71-443E-83EE-9367FD14F940","url":"https://www.nps.gov/coro/index.htm","fullName":"Coronado National Memorial","parkCode":"coro","latitude":"31.34900397","longitude":"-110.2561574","states":["AZ"],"designation":"National Memorial"},{"NPS_id":"5AD68231-8681-43F6-89B1-08E5AA4C7FE6","url":"https://www.nps.gov/fobo/index.htm","fullName":"Fort Bowie National Historic Site","parkCode":"fobo","latitude":"32.14925942","longitude":"-109.451132","states":["AZ"],"designation":"National Historic Site"},{"NPS_id":"F7EB51F0-240D-49BC-968C-792756A3B1A0","url":"https://www.nps.gov/glca/index.htm","fullName":"Glen Canyon National Recreation Area","parkCode":"glca","latitude":"36.9357464677","longitude":"-111.485594268","states":["AZ","UT"],"designation":"National Recreation Area"},{"NPS_id":"B7FF43E5-3A95-4C8E-8DBE-72D8608D6588","url":"https://www.nps.gov/grca/index.htm","fullName":"Grand Canyon National Park","parkCode":"grca","latitude":"36.0001165336","longitude":"-112.121516363","states":["AZ"],"designation":"National Park"},{"NPS_id":"F614E6C5-1283-431A-AF44-15FC849D65FE","url":"https://www.nps.gov/para/index.htm","fullName":"Grand Canyon-Parashant National Monument","parkCode":"para","latitude":"36.41535465","longitude":"-113.6682797","states":["AZ"],"designation":"National Monument"},{"NPS_id":"E2A4E070-D68B-42D6-8353-4438ED2F43AB","url":"https://www.nps.gov/hutr/index.htm","fullName":"Hubbell Trading Post National Historic Site","parkCode":"hutr","latitude":"35.70727324","longitude":"-109.5599515","states":["AZ"],"designation":"National Historic Site"},{"NPS_id":"062F89B7-8DB4-4ACD-88D1-573669E63091","url":"https://www.nps.gov/juba/index.htm","fullName":"Juan Bautista de Anza National Historic Trail","parkCode":"juba","latitude":"33.8743390994","longitude":"-117.224179857","states":["AZ","CA"],"designation":"National Historic Trail"},{"NPS_id":"7B43EA5B-298C-4BAB-B22D-860B852B40A5","url":"https://www.nps.gov/lake/index.htm","fullName":"Lake Mead National Recreation Area","parkCode":"lake","latitude":"35.96622528","longitude":"-114.3469067","states":["AZ","NV"],"designation":"National Recreation Area"},{"NPS_id":"D87E3D6F-8007-46F0-971A-B3BC191CC888","url":"https://www.nps.gov/moca/index.htm","fullName":"Montezuma Castle National Monument","parkCode":"moca","latitude":"34.62237771","longitude":"-111.8147857","states":["AZ"],"designation":"National Monument"},{"NPS_id":"C4F477D4-D34A-486B-BC6C-94FB2FAA8D67","url":"https://www.nps.gov/nava/index.htm","fullName":"Navajo National Monument","parkCode":"nava","latitude":"36.71755643","longitude":"-110.5504015","states":["AZ"],"designation":"National Monument"},{"NPS_id":"8B07C05F-9C4A-4799-8428-DFA2BBB733AC","url":"https://www.nps.gov/olsp/index.htm","fullName":"Old Spanish National Historic Trail","parkCode":"olsp","latitude":"37.0791782514","longitude":"-112.114693431","states":["AZ","CA","CO","NV","NM","UT"],"designation":"National Historic Trail"},{"NPS_id":"8A4FA0D4-A3BE-4AE2-8303-1936D9BA1E29","url":"https://www.nps.gov/orpi/index.htm","fullName":"Organ Pipe Cactus National Monument","parkCode":"orpi","latitude":"32.03585543","longitude":"-112.8573314","states":["AZ"],"designation":"National Monument"},{"NPS_id":"1ABD0EFF-AC09-4EA1-8CC1-2351A3E160D0","url":"https://www.nps.gov/pefo/index.htm","fullName":"Petrified Forest National Park","parkCode":"pefo","latitude":"34.98387664","longitude":"-109.7877678","states":["AZ"],"designation":"National Park"},{"NPS_id":"97145E4E-3909-4669-8102-9559F3C405D1","url":"https://www.nps.gov/pisp/index.htm","fullName":"Pipe Spring National Monument","parkCode":"pisp","latitude":"36.86282666","longitude":"-112.7398567","states":["AZ"],"designation":"National Monument"},{"NPS_id":"A6F169CF-B830-499C-A5EB-A35138C77589","url":"https://www.nps.gov/sagu/index.htm","fullName":"Saguaro National Park","parkCode":"sagu","latitude":"32.20909636","longitude":"-110.7574974","states":["AZ"],"designation":"National Park"},{"NPS_id":"52911672-4464-4569-984C-DC6DE1EE208F","url":"https://www.nps.gov/sucr/index.htm","fullName":"Sunset Crater Volcano National Monument","parkCode":"sucr","latitude":"35.37114323","longitude":"-111.510376","states":["AZ"],"designation":"National Monument"},{"NPS_id":"69C5BC24-3065-401D-86C2-3FAC411E1327","url":"https://www.nps.gov/tont/index.htm","fullName":"Tonto National Monument","parkCode":"tont","latitude":"33.64842945","longitude":"-111.1135627","states":["AZ"],"designation":"National Monument"},{"NPS_id":"59E30CB1-C2C3-4444-BCA9-29B0FE16DCCD","url":"https://www.nps.gov/tuma/index.htm","fullName":"Tumacácori National Historical Park","parkCode":"tuma","latitude":"31.567824","longitude":"-111.051223","states":["AZ"],"designation":"National Historical Park"},{"NPS_id":"64B7871C-C058-45BA-BB7C-D3EAD50B23E8","url":"https://www.nps.gov/tuzi/index.htm","fullName":"Tuzigoot National Monument","parkCode":"tuzi","latitude":"34.77296377","longitude":"-112.0279069","states":["AZ"],"designation":"National Monument"},{"NPS_id":"8DFC9C19-FF0A-4B48-A34F-FD3D02BFE100","url":"https://www.nps.gov/waca/index.htm","fullName":"Walnut Canyon National Monument","parkCode":"waca","latitude":"35.16822994","longitude":"-111.5024239","states":["AZ"],"designation":"National Monument"},{"NPS_id":"686C8EC8-5487-43B9-B5E8-FCABD56227F0","url":"https://www.nps.gov/wupa/index.htm","fullName":"Wupatki National Monument","parkCode":"wupa","latitude":"35.55741077","longitude":"-111.3957216","states":["AZ"],"designation":"National Monument"},{"NPS_id":"6876F4F4-9B8F-4648-89EA-C1BBF770C494","url":"https://www.nps.gov/arpo/index.htm","fullName":"Arkansas Post National Memorial","parkCode":"arpo","latitude":"34.00389998","longitude":"-91.30837178","states":["AR"],"designation":"National Memorial"},{"NPS_id":"DBD2FCBF-D0DD-4262-A04E-93090888F0F5","url":"https://www.nps.gov/buff/index.htm","fullName":"Buffalo National River","parkCode":"buff","latitude":"36.04116481","longitude":"-92.90761584","states":["AR"],"designation":"National River"},{"NPS_id":"54DC5EA0-2635-4154-BBD0-AF0F38D76933","url":"https://www.nps.gov/fosm/index.htm","fullName":"Fort Smith National Historic Site","parkCode":"fosm","latitude":"35.38834746","longitude":"-94.43129079","states":["AR","OK"],"designation":"National Historic Site"},{"NPS_id":"ED9C0322-68FB-4DE1-A884-61C623281C9D","url":"https://www.nps.gov/hosp/index.htm","fullName":"Hot Springs National Park","parkCode":"hosp","latitude":"34.52414366","longitude":"-93.06332936","states":["AR"],"designation":"National Park"},{"NPS_id":"5C51E54A-BCDA-4186-96C3-1B896C3CDFCB","url":"https://www.nps.gov/chsc/index.htm","fullName":"Little Rock Central High School National Historic Site","parkCode":"chsc","latitude":"34.7369465","longitude":"-92.29987899","states":["AR"],"designation":"National Historic Site"},{"NPS_id":"58BCDB2B-5A91-4892-8470-76D802313884","url":"https://www.nps.gov/peri/index.htm","fullName":"Pea Ridge National Military Park","parkCode":"peri","latitude":"36.45438033","longitude":"-94.03468357","states":["AR"],"designation":"National Military Park"},{"NPS_id":"E7C945ED-4224-4539-B2AE-97A5B229FA74","url":"https://www.nps.gov/wicl/index.htm","fullName":"President William Jefferson Clinton Birthplace Home National Historic Site","parkCode":"wicl","latitude":"33.66758356","longitude":"-93.59641868","states":["AR"],"designation":"National Historic Site"},{"NPS_id":"07A92FEB-682E-4895-8070-3323BC6F9EF7","url":"https://www.nps.gov/trte/index.htm","fullName":"Trail Of Tears National Historic Trail","parkCode":"trte","latitude":"36.0530021046","longitude":"-89.6761041963","states":["AL","AR","GA","IL","KY","MO","NC","OK","TN"],"designation":"National Historic Trail"},{"NPS_id":"C08AD828-98FF-478E-A63C-614E7534274B","url":"https://www.nps.gov/alca/index.htm","fullName":"Alcatraz Island","parkCode":"alca","latitude":"37.82676234","longitude":"-122.4230206","states":["CA"],"designation":""},{"NPS_id":"2DB09FB7-0408-44C9-8083-8F50039BD6DA","url":"https://www.nps.gov/cabr/index.htm","fullName":"Cabrillo National Monument","parkCode":"cabr","latitude":"32.6722503","longitude":"-117.2415985","states":["CA"],"designation":"National Monument"},{"NPS_id":"B39C368F-CB27-49EC-B2A9-E6C1552430FB","url":"https://www.nps.gov/cali/index.htm","fullName":"California National Historic Trail","parkCode":"cali","latitude":"42.3999643979","longitude":"-108.702415369","states":["CA","CO","ID","KS","MO","NE","NV","OR","UT","WY"],"designation":"National Historic Trail"},{"NPS_id":"872417E6-2F91-4FDA-89A7-865B51B22332","url":"https://www.nps.gov/camo/index.htm","fullName":"Castle Mountains National Monument","parkCode":"camo","latitude":"35.29156348","longitude":"-115.0935606","states":["CA"],"designation":"National Monument"},{"NPS_id":"5595FC7A-F218-4439-8D2E-F47449838820","url":"https://www.nps.gov/chis/index.htm","fullName":"Channel Islands National Park","parkCode":"chis","latitude":"33.98680093","longitude":"-119.9112735","states":["CA"],"designation":"National Park"},{"NPS_id":"D1EAA1D1-E855-42FF-9D06-8E983413BDE5","url":"https://www.nps.gov/cech/index.htm","fullName":"César E. Chávez National Monument","parkCode":"cech","latitude":"35.22729389","longitude":"-118.5615781","states":["CA"],"designation":"National Monument"},{"NPS_id":"FFC9F9C4-D79D-4CA7-AB0F-7A2AD30061CD","url":"https://www.nps.gov/deva/index.htm","fullName":"Death Valley National Park","parkCode":"deva","latitude":"36.48753731","longitude":"-117.134395","states":["CA","NV"],"designation":"National Park"},{"NPS_id":"2DC9444C-880F-4738-BA1F-6FB123935A02","url":"https://www.nps.gov/depo/index.htm","fullName":"Devils Postpile National Monument","parkCode":"depo","latitude":"37.6152564","longitude":"-119.0873903","states":["CA"],"designation":"National Monument"},{"NPS_id":"353241CC-4C4A-4F9E-A928-EFDCE2C6E29A","url":"https://www.nps.gov/euon/index.htm","fullName":"Eugene O'Neill National Historic Site","parkCode":"euon","latitude":"37.82604456","longitude":"-122.0271566","states":["CA"],"designation":"National Historic Site"},{"NPS_id":"7FF57085-3B53-498D-86B5-96F5F1493A06","url":"https://www.nps.gov/fopo/index.htm","fullName":"Fort Point National Historic Site","parkCode":"fopo","latitude":"37.80837439","longitude":"-122.473747","states":["CA"],"designation":"National Historic Site"},{"NPS_id":"0E797FA8-6E31-418B-A68F-13CEE37A2AF5","url":"https://www.nps.gov/goga/index.htm","fullName":"Golden Gate National Recreation Area","parkCode":"goga","latitude":"37.85982543","longitude":"-122.6007386","states":["CA"],"designation":"National Recreation Area"},{"NPS_id":"F339067B-A588-4BF3-9D90-1C1BA1249203","url":"https://www.nps.gov/jomu/index.htm","fullName":"John Muir National Historic Site","parkCode":"jomu","latitude":"37.9828422","longitude":"-122.1326097","states":["CA"],"designation":"National Historic Site"},{"NPS_id":"F5CD58FB-05DC-4074-99DA-F327A537F1BC","url":"https://www.nps.gov/jotr/index.htm","fullName":"Joshua Tree National Park","parkCode":"jotr","latitude":"33.91418525","longitude":"-115.8398125","states":["CA"],"designation":"National Park"},{"NPS_id":"062F89B7-8DB4-4ACD-88D1-573669E63091","url":"https://www.nps.gov/juba/index.htm","fullName":"Juan Bautista de Anza National Historic Trail","parkCode":"juba","latitude":"33.8743390994","longitude":"-117.224179857","states":["AZ","CA"],"designation":"National Historic Trail"},{"NPS_id":"9AA4A53C-0331-43CC-99F5-379BC929FFB2","url":"https://www.nps.gov/lavo/index.htm","fullName":"Lassen Volcanic National Park","parkCode":"lavo","latitude":"40.49354575","longitude":"-121.4075993","states":["CA"],"designation":"National Park"},{"NPS_id":"10AEFADA-AFA0-4998-A9E5-3F504F351AAB","url":"https://www.nps.gov/labe/index.htm","fullName":"Lava Beds National Monument","parkCode":"labe","latitude":"41.75915823","longitude":"-121.5172189","states":["CA"],"designation":"National Monument"},{"NPS_id":"249AF67F-BB6C-4D0A-B632-07BEE855D24B","url":"https://www.nps.gov/manz/index.htm","fullName":"Manzanar National Historic Site","parkCode":"manz","latitude":"36.72559195","longitude":"-118.1547177","states":["CA"],"designation":"National Historic Site"},{"NPS_id":"D509DC08-53AD-4661-A2EA-FC69BE456E50","url":"https://www.nps.gov/moja/index.htm","fullName":"Mojave National Preserve","parkCode":"moja","latitude":"35.12485941","longitude":"-115.5168258","states":["CA"],"designation":"National Preserve"},{"NPS_id":"126A6227-E39F-44F4-A279-B1EA257CBCDA","url":"https://www.nps.gov/muwo/index.htm","fullName":"Muir Woods National Monument","parkCode":"muwo","latitude":"37.89658027","longitude":"-122.5808047","states":["CA"],"designation":"National Monument"},{"NPS_id":"8B07C05F-9C4A-4799-8428-DFA2BBB733AC","url":"https://www.nps.gov/olsp/index.htm","fullName":"Old Spanish National Historic Trail","parkCode":"olsp","latitude":"37.0791782514","longitude":"-112.114693431","states":["AZ","CA","CO","NV","NM","UT"],"designation":"National Historic Trail"},{"NPS_id":"9B266961-3364-43D2-9A08-82BB5EF5643F","url":"https://www.nps.gov/pinn/index.htm","fullName":"Pinnacles National Park","parkCode":"pinn","latitude":"36.49029208","longitude":"-121.1813607","states":["CA"],"designation":"National Park"},{"NPS_id":"B87424A7-92C3-49BA-BF16-A2EB16882376","url":"https://www.nps.gov/pore/index.htm","fullName":"Point Reyes National Seashore","parkCode":"pore","latitude":"38.05511241","longitude":"-122.8797804","states":["CA"],"designation":"National Seashore"},{"NPS_id":"A0125F49-080E-4292-BD91-C1FA1657F547","url":"https://www.nps.gov/poex/index.htm","fullName":"Pony Express National Historic Trail","parkCode":"poex","latitude":"42.2365761128","longitude":"-109.266148417","states":["CA","CO","KS","MO","NE","NV","UT","WY"],"designation":"National Historic Trail"},{"NPS_id":"F26E7620-3284-4F39-AB1B-98100B4AC6A7","url":"https://www.nps.gov/poch/index.htm","fullName":"Port Chicago Naval Magazine National Memorial","parkCode":"poch","latitude":"38.05685472","longitude":"-122.0301603","states":["CA"],"designation":"National Memorial"},{"NPS_id":"75DD7A23-4BCF-4D11-A407-E282C2417DA4","url":"https://www.nps.gov/prsf/index.htm","fullName":"Presidio of San Francisco","parkCode":"prsf","latitude":"37.797","longitude":"-122.4671","states":["CA"],"designation":""},{"NPS_id":"041B325C-A34F-4027-8E41-1DF3F9A1D799","url":"https://www.nps.gov/redw/index.htm","fullName":"Redwood National and State Parks","parkCode":"redw","latitude":"41.37237268","longitude":"-124.0318129","states":["CA"],"designation":"National and State Parks"},{"NPS_id":"69F87C0F-AABE-4C34-97D3-F6DF33ACD772","url":"https://www.nps.gov/rori/index.htm","fullName":"Rosie the Riveter WWII Home Front National Historical Park","parkCode":"rori","latitude":"37.90999027","longitude":"-122.360156","states":["CA"],"designation":"National Historical Park"},{"NPS_id":"C75450D2-9223-4D5F-9BA4-28DBB92CD507","url":"https://www.nps.gov/safr/index.htm","fullName":"San Francisco Maritime National Historical Park","parkCode":"safr","latitude":"37.81005871","longitude":"-122.4244415","states":["CA"],"designation":"National Historical Park"},{"NPS_id":"6E020F5D-3F97-4A43-88E6-C68254B55F2C","url":"https://www.nps.gov/samo/index.htm","fullName":"Santa Monica Mountains National Recreation Area","parkCode":"samo","latitude":"34.09777606","longitude":"-118.7708619","states":["CA"],"designation":"National Recreation Area"},{"NPS_id":"7E5A693C-2F63-44FD-B791-31FC8B8B6285","url":"https://www.nps.gov/seki/index.htm","fullName":"Sequoia & Kings Canyon National Parks","parkCode":"seki","latitude":"36.71277299","longitude":"-118.587429","states":["CA"],"designation":"National Parks"},{"NPS_id":"C315119F-1597-4C44-A8FA-60D707730FF0","url":"https://www.nps.gov/tule/index.htm","fullName":"Tule Lake National Monument","parkCode":"tule","latitude":"41.88727902","longitude":"-121.3744818","states":["CA"],"designation":"National Monument"},{"NPS_id":"89730CB2-BB7D-400B-AF35-5F95A574D97D","url":"https://www.nps.gov/whis/index.htm","fullName":"Whiskeytown National Recreation Area","parkCode":"whis","latitude":"40.61359941","longitude":"-122.6022657","states":["CA"],"designation":"National Recreation Area"},{"NPS_id":"4324B2B4-D1A3-497F-8E6B-27171FAE4DB2","url":"https://www.nps.gov/yose/index.htm","fullName":"Yosemite National Park","parkCode":"yose","latitude":"37.84883288","longitude":"-119.5571873","states":["CA"],"designation":"National Park"},{"NPS_id":"D35004EF-5F5A-4DA4-8716-5141BE5C933C","url":"https://www.nps.gov/amch/index.htm","fullName":"Amache National Historic Site","parkCode":"amch","latitude":"38.04962","longitude":"-102.32903","states":["CO"],"designation":"National Historic Site"},{"NPS_id":"87F9EFC7-1951-4250-A367-644EC5C4E6A2","url":"https://www.nps.gov/beol/index.htm","fullName":"Bent's Old Fort National Historic Site","parkCode":"beol","latitude":"38.03977546","longitude":"-103.4266499","states":["CO"],"designation":"National Historic Site"},{"NPS_id":"BDBD573F-97EF-44E7-A579-471679F2C42A","url":"https://www.nps.gov/blca/index.htm","fullName":"Black Canyon Of The Gunnison National Park","parkCode":"blca","latitude":"38.57779869","longitude":"-107.7242756","states":["CO"],"designation":"National Park"},{"NPS_id":"B39C368F-CB27-49EC-B2A9-E6C1552430FB","url":"https://www.nps.gov/cali/index.htm","fullName":"California National Historic Trail","parkCode":"cali","latitude":"42.3999643979","longitude":"-108.702415369","states":["CA","CO","ID","KS","MO","NE","NV","OR","UT","WY"],"designation":"National Historic Trail"},{"NPS_id":"EC5A2653-4470-46E7-8B57-30B8ADE46445","url":"https://www.nps.gov/colm/index.htm","fullName":"Colorado National Monument","parkCode":"colm","latitude":"39.05045016","longitude":"-108.6920709","states":["CO"],"designation":"National Monument"},{"NPS_id":"80E30980-1B26-4AE7-A039-FA7D8D119070","url":"https://www.nps.gov/cure/index.htm","fullName":"Curecanti National Recreation Area","parkCode":"cure","latitude":"38.46584558","longitude":"-107.3303371","states":["CO"],"designation":"National Recreation Area"},{"NPS_id":"061D9754-B947-48FD-99BE-1FE1AAD1BB90","url":"https://www.nps.gov/dino/index.htm","fullName":"Dinosaur National Monument","parkCode":"dino","latitude":"40.50739742","longitude":"-108.9333714","states":["CO","UT"],"designation":"National Monument"},{"NPS_id":"1F38885B-538E-499C-B5A6-30D76267AC7F","url":"https://www.nps.gov/flfo/index.htm","fullName":"Florissant Fossil Beds National Monument","parkCode":"flfo","latitude":"38.91260586","longitude":"-105.2803396","states":["CO"],"designation":"National Monument"},{"NPS_id":"461D40CC-4379-4C1B-ADB8-3563147F61A1","url":"https://www.nps.gov/grsa/index.htm","fullName":"Great Sand Dunes National Park & Preserve","parkCode":"grsa","latitude":"37.79256812","longitude":"-105.5919572","states":["CO"],"designation":"National Park & Preserve"},{"NPS_id":"BA84404E-743C-4841-9F83-87CEDA164E5B","url":"https://www.nps.gov/hove/index.htm","fullName":"Hovenweep National Monument","parkCode":"hove","latitude":"37.39134092","longitude":"-109.0047977","states":["CO","UT"],"designation":"National Monument"},{"NPS_id":"BE3A981E-BB55-474D-8A0E-D711408682DC","url":"https://www.nps.gov/meve/index.htm","fullName":"Mesa Verde National Park","parkCode":"meve","latitude":"37.23908345","longitude":"-108.4624032","states":["CO"],"designation":"National Park"},{"NPS_id":"8B07C05F-9C4A-4799-8428-DFA2BBB733AC","url":"https://www.nps.gov/olsp/index.htm","fullName":"Old Spanish National Historic Trail","parkCode":"olsp","latitude":"37.0791782514","longitude":"-112.114693431","states":["AZ","CA","CO","NV","NM","UT"],"designation":"National Historic Trail"},{"NPS_id":"A0125F49-080E-4292-BD91-C1FA1657F547","url":"https://www.nps.gov/poex/index.htm","fullName":"Pony Express National Historic Trail","parkCode":"poex","latitude":"42.2365761128","longitude":"-109.266148417","states":["CA","CO","KS","MO","NE","NV","UT","WY"],"designation":"National Historic Trail"},{"NPS_id":"67A56B17-F533-4A56-B2DA-26091C6AD295","url":"https://www.nps.gov/romo/index.htm","fullName":"Rocky Mountain National Park","parkCode":"romo","latitude":"40.3556924","longitude":"-105.6972879","states":["CO"],"designation":"National Park"},{"NPS_id":"13E255FA-F68C-491C-828C-59E5B4FA2600","url":"https://www.nps.gov/sand/index.htm","fullName":"Sand Creek Massacre National Historic Site","parkCode":"sand","latitude":"38.56414189","longitude":"-102.5169542","states":["CO"],"designation":"National Historic Site"},{"NPS_id":"2B14155F-0E31-43F3-8B87-8B1DA6FA0BF7","url":"https://www.nps.gov/safe/index.htm","fullName":"Santa Fe National Historic Trail","parkCode":"safe","latitude":"37.7276522226","longitude":"-99.921969227","states":["CO","KS","MO","NM","OK"],"designation":"National Historic Trail"},{"NPS_id":"9854D136-AFC0-4966-BB40-FE9323B56A49","url":"https://www.nps.gov/yuho/index.htm","fullName":"Yucca House National Monument","parkCode":"yuho","latitude":"37.24778944","longitude":"-108.6861274","states":["CO"],"designation":"National Monument"},{"NPS_id":"FAEF5684-83A4-4CF2-A701-60CF8D4014BD","url":"https://www.nps.gov/appa/index.htm","fullName":"Appalachian National Scenic Trail","parkCode":"appa","latitude":"40.41029575","longitude":"-76.4337548","states":["CT","GA","MA","MD","ME","NC","NH","NJ","NY","PA","TN","VA","VT","WV"],"designation":"National Scenic Trail"},{"NPS_id":"42E23CFA-4849-43D1-B9C7-77509C0AB85B","url":"https://www.nps.gov/colt/index.htm","fullName":"Coltsville National Historical Park","parkCode":"colt","latitude":"42.4677505493","longitude":"-73.203666687","states":["CT"],"designation":"National Historical Park"},{"NPS_id":"CF83E09C-3E55-4B5A-9D8B-E833CF6FEB5A","url":"https://www.nps.gov/neen/index.htm","fullName":"New England National Scenic Trail","parkCode":"neen","latitude":"42.2915819137","longitude":"-72.5242767334","states":["MA","CT"],"designation":"National Scenic Trail"},{"NPS_id":"3D547E73-F0BF-4FEA-9CAC-9611D024E2FF","url":"https://www.nps.gov/waro/index.htm","fullName":"Washington-Rochambeau Revolutionary Route National Historic Trail","parkCode":"waro","latitude":"40.0958204557","longitude":"-74.8563515109","states":["MA","RI","CT","NY","NJ","PA","DE","MD","VA","DC"],"designation":"National Historic Trail"},{"NPS_id":"EA86FED8-2E03-467A-A8BD-4F032A647F35","url":"https://www.nps.gov/wefa/index.htm","fullName":"Weir Farm National Historical Park","parkCode":"wefa","latitude":"41.25886268","longitude":"-73.45452542","states":["CT"],"designation":"National Historical Park"},{"NPS_id":"481CEBB8-1942-4FAE-8D89-9902E7B9EECA","url":"https://www.nps.gov/cajo/index.htm","fullName":"Captain John Smith Chesapeake National Historic Trail","parkCode":"cajo","latitude":"38.971601","longitude":"-76.483355","states":["VA","MD","DE","DC","PA","NY"],"designation":"National Historic Trail"},{"NPS_id":"25554F74-A4AB-4C49-9071-341F00F0DAB8","url":"https://www.nps.gov/cbpo/index.htm","fullName":"Chesapeake Bay","parkCode":"cbpo","latitude":"38.971601","longitude":"-76.483355","states":["DC","DE","MD","NY","PA","VA","WV"],"designation":""},{"NPS_id":"7861C177-A600-4B37-B217-E9E64DC04F34","url":"https://www.nps.gov/frst/index.htm","fullName":"First State National Historical Park","parkCode":"frst","latitude":"39.83076929","longitude":"-75.56353942","states":["DE","PA"],"designation":"National Historical Park"},{"NPS_id":"3D547E73-F0BF-4FEA-9CAC-9611D024E2FF","url":"https://www.nps.gov/waro/index.htm","fullName":"Washington-Rochambeau Revolutionary Route National Historic Trail","parkCode":"waro","latitude":"40.0958204557","longitude":"-74.8563515109","states":["MA","RI","CT","NY","NJ","PA","DE","MD","VA","DC"],"designation":"National Historic Trail"},{"NPS_id":"1A47416F-DAA3-4137-9F30-14AF86B4E547","url":"https://www.nps.gov/afam/index.htm","fullName":"African American Civil War Memorial","parkCode":"afam","latitude":"38.9166","longitude":"-77.026","states":["DC"],"designation":""},{"NPS_id":"9463E25C-7342-4A34-9537-4A6DA74B2B06","url":"https://www.nps.gov/anac/index.htm","fullName":"Anacostia Park","parkCode":"anac","latitude":"38.8782","longitude":"-76.9703","states":["DC"],"designation":"Park"},{"NPS_id":"E7E4E103-5FA9-45AC-8843-05DE554CDBB7","url":"https://www.nps.gov/bepa/index.htm","fullName":"Belmont-Paul Women's Equality National Monument","parkCode":"bepa","latitude":"38.89231541","longitude":"-77.00381882","states":["DC"],"designation":"National Monument"},{"NPS_id":"96DC2172-0201-4ABB-BD77-2687F4726C9B","url":"https://www.nps.gov/cahi/index.htm","fullName":"Capitol Hill Parks","parkCode":"cahi","latitude":"38.889993","longitude":"-76.990332","states":["DC"],"designation":""},{"NPS_id":"481CEBB8-1942-4FAE-8D89-9902E7B9EECA","url":"https://www.nps.gov/cajo/index.htm","fullName":"Captain John Smith Chesapeake National Historic Trail","parkCode":"cajo","latitude":"38.971601","longitude":"-76.483355","states":["VA","MD","DE","DC","PA","NY"],"designation":"National Historic Trail"},{"NPS_id":"D040C2B5-BFCD-4DED-AADC-BA28E29CC560","url":"https://www.nps.gov/cawo/index.htm","fullName":"Carter G. Woodson Home National Historic Site","parkCode":"cawo","latitude":"38.91089286","longitude":"-77.02431104","states":["DC"],"designation":"National Historic Site"},{"NPS_id":"9192FFEE-4D88-4A03-A054-F47C33F0C3E9","url":"https://www.nps.gov/choh/index.htm","fullName":"Chesapeake & Ohio Canal National Historical Park","parkCode":"choh","latitude":"39.000283692","longitude":"-77.2481399539","states":["DC","MD","WV"],"designation":"National Historical Park"},{"NPS_id":"25554F74-A4AB-4C49-9071-341F00F0DAB8","url":"https://www.nps.gov/cbpo/index.htm","fullName":"Chesapeake Bay","parkCode":"cbpo","latitude":"38.971601","longitude":"-76.483355","states":["DC","DE","MD","NY","PA","VA","WV"],"designation":""},{"NPS_id":"8A6C3A35-C48B-4125-82E1-939A1B3A535C","url":"https://www.nps.gov/cwdw/index.htm","fullName":"Civil War Defenses of Washington","parkCode":"cwdw","latitude":"38.9644","longitude":"-77.0292","states":["DC","MD","VA"],"designation":""},{"NPS_id":"B2F2941A-1BC1-42ED-B02F-541EBC80AEE4","url":"https://www.nps.gov/coga/index.htm","fullName":"Constitution Gardens","parkCode":"coga","latitude":"38.8909354","longitude":"-77.04409306","states":["DC"],"designation":""},{"NPS_id":"658C035B-119B-4C6F-9720-67872AD6A8A5","url":"https://www.nps.gov/ddem/index.htm","fullName":"Dwight D. Eisenhower Memorial","parkCode":"ddem","latitude":"38.8869476647","longitude":"-77.018737554","states":["DC"],"designation":"Memorial"},{"NPS_id":"C1D82E29-1291-415B-9834-5A0480D2732C","url":"https://www.nps.gov/foth/index.htm","fullName":"Ford's Theatre","parkCode":"foth","latitude":"38.89668819","longitude":"-77.02577944","states":["DC"],"designation":""},{"NPS_id":"3659D57D-BF06-4351-8B14-5F447120A389","url":"https://www.nps.gov/fodu/index.htm","fullName":"Fort Dupont Park","parkCode":"fodu","latitude":"38.87731289","longitude":"-76.94955824","states":["DC"],"designation":""},{"NPS_id":"8F8CC788-D1BB-42BC-A41E-B442E2B001C8","url":"https://www.nps.gov/frde/index.htm","fullName":"Franklin Delano Roosevelt Memorial","parkCode":"frde","latitude":"38.88341274","longitude":"-77.04311542","states":["DC"],"designation":""},{"NPS_id":"F6831504-A456-45C8-B87B-0FCE1D849A12","url":"https://www.nps.gov/frdo/index.htm","fullName":"Frederick Douglass National Historic Site","parkCode":"frdo","latitude":"38.86298458","longitude":"-76.98508147","states":["DC"],"designation":"National Historic Site"},{"NPS_id":"E6D5BB41-3251-469F-ABDA-7B43B966F0CF","url":"https://www.nps.gov/gwmp/index.htm","fullName":"George Washington Memorial Parkway","parkCode":"gwmp","latitude":"38.9628","longitude":"-77.1495","states":["DC","MD","VA"],"designation":"Memorial Parkway"},{"NPS_id":"A1901BAE-94DB-44E4-96D4-1E07422EDF6E","url":"https://www.nps.gov/keaq/index.htm","fullName":"Kenilworth Park & Aquatic Gardens","parkCode":"keaq","latitude":"38.9128","longitude":"-76.9434","states":["DC"],"designation":""},{"NPS_id":"0DEA542F-01B7-4631-8AAD-124161D7B7E6","url":"https://www.nps.gov/kowa/index.htm","fullName":"Korean War Veterans Memorial","parkCode":"kowa","latitude":"38.88784226","longitude":"-77.04773857","states":["DC"],"designation":""},{"NPS_id":"D50B95B0-11C7-4F0A-8B3A-9BAC66E8F1A7","url":"https://www.nps.gov/lyba/index.htm","fullName":"LBJ Memorial Grove on the Potomac","parkCode":"lyba","latitude":"38.87858036","longitude":"-77.05145832","states":["DC"],"designation":""},{"NPS_id":"1EAEF5FA-8CD4-40D7-8B09-07F20E3E5AA5","url":"https://www.nps.gov/linc/index.htm","fullName":"Lincoln Memorial","parkCode":"linc","latitude":"38.88927229","longitude":"-77.05017778","states":["DC"],"designation":""},{"NPS_id":"855C9CDC-89B3-4143-9496-D9E6AE292CA1","url":"https://www.nps.gov/mlkm/index.htm","fullName":"Martin Luther King, Jr. Memorial","parkCode":"mlkm","latitude":"38.8862276865","longitude":"-77.0442195534","states":["DC"],"designation":""},{"NPS_id":"1D530576-5363-4264-9A26-1C0809DB0B6A","url":"https://www.nps.gov/mamc/index.htm","fullName":"Mary McLeod Bethune Council House National Historic Site","parkCode":"mamc","latitude":"38.90819107","longitude":"-77.03096742","states":["DC"],"designation":"National Historic Site"},{"NPS_id":"BA3C1A1D-AA6A-49EB-9237-0222CEEE2670","url":"https://www.nps.gov/nace/index.htm","fullName":"National Capital Parks-East","parkCode":"nace","latitude":"38.8659","longitude":"-76.994","states":["DC"],"designation":""},{"NPS_id":"1E521374-B73C-41CD-B524-89E4AC6495F5","url":"https://www.nps.gov/nama/index.htm","fullName":"National Mall and Memorial Parks","parkCode":"nama","latitude":"38.8899","longitude":"-77.026","states":["DC"],"designation":""},{"NPS_id":"6282ABFA-00EF-413D-BE91-48D993A356F4","url":"https://www.nps.gov/paav/index.htm","fullName":"Pennsylvania Avenue","parkCode":"paav","latitude":"38.89426856","longitude":"-77.02506554","states":["DC"],"designation":""},{"NPS_id":"B7429C72-D8CA-46D9-8E89-E659259D8EEF","url":"https://www.nps.gov/pohe/index.htm","fullName":"Potomac Heritage National Scenic Trail","parkCode":"pohe","latitude":"39.15060133","longitude":"-77.52301085","states":["DC","MD","PA","VA"],"designation":"National Scenic Trail"},{"NPS_id":"D06293DF-25C4-4065-B0C7-BA5A225D3BF3","url":"https://www.nps.gov/rocr/index.htm","fullName":"Rock Creek Park","parkCode":"rocr","latitude":"38.95125063","longitude":"-77.05002838","states":["DC"],"designation":"Park"},{"NPS_id":"F22ED7C4-DDB8-43F8-AAF2-D474864352DA","url":"https://www.nps.gov/stsp/index.htm","fullName":"Star-Spangled Banner National Historic Trail","parkCode":"stsp","latitude":"39.2872505188","longitude":"-76.6034317017","states":["MD","VA","DC"],"designation":"National Historic Trail"},{"NPS_id":"C59FE971-54EE-447C-9DCE-CB781949B0B8","url":"https://www.nps.gov/whho/index.htm","fullName":"The White House and President's Park","parkCode":"whho","latitude":"38.89541886","longitude":"-77.03654147","states":["DC"],"designation":""},{"NPS_id":"42D7081F-2B9B-449C-9BF2-785850AE4865","url":"https://www.nps.gov/this/index.htm","fullName":"Theodore Roosevelt Island","parkCode":"this","latitude":"38.89584162","longitude":"-77.06241918","states":["DC"],"designation":""},{"NPS_id":"2D0C31DF-BE78-42A8-812E-1A44602B3D40","url":"https://www.nps.gov/thje/index.htm","fullName":"Thomas Jefferson Memorial","parkCode":"thje","latitude":"38.88101431","longitude":"-77.03632572","states":["DC"],"designation":""},{"NPS_id":"DFCBAD2C-0B0A-47E8-9C3C-BF55BB3409B2","url":"https://www.nps.gov/vive/index.htm","fullName":"Vietnam Veterans Memorial","parkCode":"vive","latitude":"38.89096297","longitude":"-77.04765735","states":["DC"],"designation":""},{"NPS_id":"37E34290-2E37-4A67-8C95-7A3442F354B1","url":"https://www.nps.gov/wamo/index.htm","fullName":"Washington Monument","parkCode":"wamo","latitude":"38.88948","longitude":"-77.035207","states":["DC"],"designation":""},{"NPS_id":"3D547E73-F0BF-4FEA-9CAC-9611D024E2FF","url":"https://www.nps.gov/waro/index.htm","fullName":"Washington-Rochambeau Revolutionary Route National Historic Trail","parkCode":"waro","latitude":"40.0958204557","longitude":"-74.8563515109","states":["MA","RI","CT","NY","NJ","PA","DE","MD","VA","DC"],"designation":"National Historic Trail"},{"NPS_id":"3B4879C9-E8D3-4B0C-9F6D-8345FAA298A6","url":"https://www.nps.gov/wwim/index.htm","fullName":"World War I Memorial","parkCode":"wwim","latitude":"38.8959","longitude":"-77.0329","states":["DC"],"designation":""},{"NPS_id":"F85AF8D0-1B85-4B2C-9356-840A4AF6A354","url":"https://www.nps.gov/wwii/index.htm","fullName":"World War II Memorial","parkCode":"wwii","latitude":"38.88923917","longitude":"-77.0403759","states":["DC"],"designation":""},{"NPS_id":"E0F4D5E3-3E4A-4345-B86A-1B0CAD7461F1","url":"https://www.nps.gov/bicy/index.htm","fullName":"Big Cypress National Preserve","parkCode":"bicy","latitude":"25.97079602","longitude":"-81.08120629","states":["FL"],"designation":"National Preserve"},{"NPS_id":"FBF9F793-5114-4B61-A5BA-6F9ADDFDF459","url":"https://www.nps.gov/bisc/index.htm","fullName":"Biscayne National Park","parkCode":"bisc","latitude":"25.490587","longitude":"-80.21023851","states":["FL"],"designation":"National Park"},{"NPS_id":"FFD294C0-8027-42EC-B395-9C3BF2B80F49","url":"https://www.nps.gov/cana/index.htm","fullName":"Canaveral National Seashore","parkCode":"cana","latitude":"28.78637529","longitude":"-80.75419576","states":["FL"],"designation":"National Seashore"},{"NPS_id":"E455313B-782A-4CDC-A6A5-8B506FA3A4C1","url":"https://www.nps.gov/casa/index.htm","fullName":"Castillo de San Marcos National Monument","parkCode":"casa","latitude":"29.89785701","longitude":"-81.31217173","states":["FL"],"designation":"National Monument"},{"NPS_id":"C40BEE20-AF31-4DB5-AC77-D53EC89D1D9F","url":"https://www.nps.gov/deso/index.htm","fullName":"De Soto National Memorial","parkCode":"deso","latitude":"27.52272613","longitude":"-82.64335416","states":["FL"],"designation":"National Memorial"},{"NPS_id":"167A05D1-5793-49E0-89FE-0A1DDFA9A7F4","url":"https://www.nps.gov/drto/index.htm","fullName":"Dry Tortugas National Park","parkCode":"drto","latitude":"24.628741","longitude":"-82.87319","states":["FL"],"designation":"National Park"},{"NPS_id":"5EA02193-276A-4037-B7DB-5765A56935FD","url":"https://www.nps.gov/ever/index.htm","fullName":"Everglades National Park","parkCode":"ever","latitude":"25.37294225","longitude":"-80.88200301","states":["FL"],"designation":"National Park"},{"NPS_id":"31E84ADD-24C1-400B-9D8B-4588D8DC521C","url":"https://www.nps.gov/foma/index.htm","fullName":"Fort Matanzas National Monument","parkCode":"foma","latitude":"29.7121489","longitude":"-81.23567535","states":["FL"],"designation":"National Monument"},{"NPS_id":"ACA78E27-3C26-4C8B-8CCB-9F0B5BED247F","url":"https://www.nps.gov/guis/index.htm","fullName":"Gulf Islands National Seashore","parkCode":"guis","latitude":"30.29924926","longitude":"-87.75064297","states":["FL","MS"],"designation":"National Seashore"},{"NPS_id":"A1C5A868-68A9-4403-B762-531EBA300E3C","url":"https://www.nps.gov/timu/index.htm","fullName":"Timucuan Ecological & Historic Preserve","parkCode":"timu","latitude":"30.47251894","longitude":"-81.49950104","states":["FL"],"designation":"Ecological & Historic Preserve"},{"NPS_id":"00E65872-53F7-4C9B-BD29-B9BC99930D0D","url":"https://www.nps.gov/ande/index.htm","fullName":"Andersonville National Historic Site","parkCode":"ande","latitude":"32.19831758","longitude":"-84.12988898","states":["GA"],"designation":"National Historic Site"},{"NPS_id":"FAEF5684-83A4-4CF2-A701-60CF8D4014BD","url":"https://www.nps.gov/appa/index.htm","fullName":"Appalachian National Scenic Trail","parkCode":"appa","latitude":"40.41029575","longitude":"-76.4337548","states":["CT","GA","MA","MD","ME","NC","NH","NJ","NY","PA","TN","VA","VT","WV"],"designation":"National Scenic Trail"},{"NPS_id":"021F297B-D672-4794-8C5E-BB58743F252A","url":"https://www.nps.gov/chat/index.htm","fullName":"Chattahoochee River National Recreation Area","parkCode":"chat","latitude":"33.99698333","longitude":"-84.28953177","states":["GA"],"designation":"National Recreation Area"},{"NPS_id":"FD536267-125D-4CEB-8978-2B2767C3B2FF","url":"https://www.nps.gov/chch/index.htm","fullName":"Chickamauga & Chattanooga National Military Park","parkCode":"chch","latitude":"34.94317623","longitude":"-85.28749537","states":["GA","TN"],"designation":"National Military Park"},{"NPS_id":"EF680908-DE76-4336-BD51-F33BEB09B4D7","url":"https://www.nps.gov/cuis/index.htm","fullName":"Cumberland Island National Seashore","parkCode":"cuis","latitude":"30.85857484","longitude":"-81.45253575","states":["GA"],"designation":"National Seashore"},{"NPS_id":"4301F6E9-750B-489D-B8E4-4204165894A1","url":"https://www.nps.gov/fofr/index.htm","fullName":"Fort Frederica National Monument","parkCode":"fofr","latitude":"31.2214699","longitude":"-81.39452014","states":["GA"],"designation":"National Monument"},{"NPS_id":"3249A652-F901-40F2-A608-635B0F41574B","url":"https://www.nps.gov/fopu/index.htm","fullName":"Fort Pulaski National Monument","parkCode":"fopu","latitude":"32.0308274","longitude":"-80.93361681","states":["GA"],"designation":"National Monument"},{"NPS_id":"F63CFF21-C861-422D-A725-B8F3ECFF6EAE","url":"https://www.nps.gov/jica/index.htm","fullName":"Jimmy Carter National Historical Park","parkCode":"jica","latitude":"32.03611","longitude":"-84.3924","states":["GA"],"designation":"National Historical Park"},{"NPS_id":"AA1E3B48-8B98-4F47-A642-C266A92AB523","url":"https://www.nps.gov/kemo/index.htm","fullName":"Kennesaw Mountain National Battlefield Park","parkCode":"kemo","latitude":"33.95370717","longitude":"-84.59214186","states":["GA"],"designation":"National Battlefield Park"},{"NPS_id":"59636FCE-DE81-4D98-890C-585BD48F9AD0","url":"https://www.nps.gov/malu/index.htm","fullName":"Martin Luther King, Jr. National Historical Park","parkCode":"malu","latitude":"33.75618241","longitude":"-84.37256768","states":["GA"],"designation":"National Historical Park"},{"NPS_id":"81AFEB37-7119-4BF1-B65B-806BAB973FFD","url":"https://www.nps.gov/ocmu/index.htm","fullName":"Ocmulgee Mounds National Historical Park","parkCode":"ocmu","latitude":"32.83816576","longitude":"-83.60224853","states":["GA"],"designation":"National Historical Park"},{"NPS_id":"07A92FEB-682E-4895-8070-3323BC6F9EF7","url":"https://www.nps.gov/trte/index.htm","fullName":"Trail Of Tears National Historic Trail","parkCode":"trte","latitude":"36.0530021046","longitude":"-89.6761041963","states":["AL","AR","GA","IL","KY","MO","NC","OK","TN"],"designation":"National Historic Trail"},{"NPS_id":"D44FE5CB-71B4-4B7C-A52A-41BE9D9211B3","url":"https://www.nps.gov/wapa/index.htm","fullName":"War In The Pacific National Historical Park","parkCode":"wapa","latitude":"13.43795691","longitude":"144.6922461","states":["GU"],"designation":"National Historical Park"},{"NPS_id":"3B8307B3-54AB-4E5F-ACBC-8DECB98AD5F1","url":"https://www.nps.gov/alka/index.htm","fullName":"Ala Kahakai National Historic Trail","parkCode":"alka","latitude":"19.144668109","longitude":"-155.890734294","states":["HI"],"designation":"National Historic Trail"},{"NPS_id":"4930BAEB-A3BF-4825-9796-DCD0FD1C3BD5","url":"https://www.nps.gov/hale/index.htm","fullName":"Haleakalā National Park","parkCode":"hale","latitude":"20.70693015","longitude":"-156.1591775","states":["HI"],"designation":"National Park"},{"NPS_id":"D9BF4288-9AC3-4526-9598-BE8920839ACC","url":"https://www.nps.gov/havo/index.htm","fullName":"Hawaiʻi Volcanoes National Park","parkCode":"havo","latitude":"19.3355036","longitude":"-155.4700257","states":["HI"],"designation":"National Park"},{"NPS_id":"88F37F00-EAD0-44C4-88D1-F42D52BF661B","url":"https://www.nps.gov/hono/index.htm","fullName":"Honouliuli National Historic Site","parkCode":"hono","latitude":"21.38817536","longitude":"-158.0574991","states":["HI"],"designation":"National Historic Site"},{"NPS_id":"3C869976-DF2E-4D99-9918-366DFE637846","url":"https://www.nps.gov/kala/index.htm","fullName":"Kalaupapa National Historical Park","parkCode":"kala","latitude":"21.1731108","longitude":"-156.9511609","states":["HI"],"designation":"National Historical Park"},{"NPS_id":"C8B7FCAD-0176-4ABC-8774-90A264E646F1","url":"https://www.nps.gov/kaho/index.htm","fullName":"Kaloko-Honokōhau National Historical Park","parkCode":"kaho","latitude":"19.68083237","longitude":"-156.0306932","states":["HI"],"designation":"National Historical Park"},{"NPS_id":"0B61230F-375C-4392-BDF0-BB3FC43D2CFE","url":"https://www.nps.gov/valr/index.htm","fullName":"Pearl Harbor National Memorial","parkCode":"valr","latitude":"21.3670699388","longitude":"-157.938578898","states":["HI"],"designation":"National Memorial"},{"NPS_id":"632CA28B-F67C-4BDB-A209-42A8332EE6D0","url":"https://www.nps.gov/puho/index.htm","fullName":"Puʻuhonua o Hōnaunau National Historical Park","parkCode":"puho","latitude":"19.41268627","longitude":"-155.9008789","states":["HI"],"designation":"National Historical Park"},{"NPS_id":"9C680E81-C4DC-46DD-BF33-8189828FF887","url":"https://www.nps.gov/puhe/index.htm","fullName":"Puʻukoholā Heiau National Historic Site","parkCode":"puhe","latitude":"20.02772186","longitude":"-155.8211629","states":["HI"],"designation":"National Historic Site"},{"NPS_id":"B39C368F-CB27-49EC-B2A9-E6C1552430FB","url":"https://www.nps.gov/cali/index.htm","fullName":"California National Historic Trail","parkCode":"cali","latitude":"42.3999643979","longitude":"-108.702415369","states":["CA","CO","ID","KS","MO","NE","NV","OR","UT","WY"],"designation":"National Historic Trail"},{"NPS_id":"FC72FEF5-362F-4C9B-B6A1-88FA559D84CE","url":"https://www.nps.gov/ciro/index.htm","fullName":"City Of Rocks National Reserve","parkCode":"ciro","latitude":"42.0699024","longitude":"-113.7124097","states":["ID"],"designation":"National Reserve"},{"NPS_id":"1388A0C7-D12A-4642-885A-A9C723458BA3","url":"https://www.nps.gov/crmo/index.htm","fullName":"Craters Of The Moon National Monument & Preserve","parkCode":"crmo","latitude":"43.20345611","longitude":"-113.4791609","states":["ID"],"designation":"National Monument & Preserve"},{"NPS_id":"BEE3E4AA-D61B-4197-A2A0-567D15734766","url":"https://www.nps.gov/hafo/index.htm","fullName":"Hagerman Fossil Beds National Monument","parkCode":"hafo","latitude":"42.79074114","longitude":"-114.9443074","states":["ID"],"designation":"National Monument"},{"NPS_id":"07D9E506-B86A-4762-801F-2D333F369D5D","url":"https://www.nps.gov/iafl/index.htm","fullName":"Ice Age Floods National Geologic Trail","parkCode":"iafl","latitude":"46.5669309008","longitude":"-118.992564971","states":["WA","OR","ID","MT"],"designation":"National Geologic Trail"},{"NPS_id":"5D443C5F-19A0-4A06-9CE4-30534A3DD81A","url":"https://www.nps.gov/lecl/index.htm","fullName":"Lewis & Clark National Historic Trail","parkCode":"lecl","latitude":"41.2646141052","longitude":"-95.9245147705","states":["IA","ID","IL","IN","KS","KY","MO","MT","NE","ND","OH","OR","PA","SD","WA","WV"],"designation":"National Historic Trail"},{"NPS_id":"FE52067B-EBB9-4FD2-B613-FE778985BAD9","url":"https://www.nps.gov/miin/index.htm","fullName":"Minidoka National Historic Site","parkCode":"miin","latitude":"42.80586068","longitude":"-114.4449868","states":["ID","WA"],"designation":"National Historic Site"},{"NPS_id":"05F2A0A7-317D-4C4F-95D6-F046BE96310C","url":"https://www.nps.gov/nepe/index.htm","fullName":"Nez Perce National Historical Park","parkCode":"nepe","latitude":"46.07019093","longitude":"-115.8761258","states":["ID","MT","OR","WA"],"designation":"National Historical Park"},{"NPS_id":"4E072F12-3E85-4219-B456-A8F04C688879","url":"https://www.nps.gov/oreg/index.htm","fullName":"Oregon National Historic Trail","parkCode":"oreg","latitude":"41.9876977831","longitude":"-109.634200841","states":["ID","KS","MO","NE","OR","WA","WY"],"designation":"National Historic Trail"},{"NPS_id":"F58C6D24-8D10-4573-9826-65D42B8B83AD","url":"https://www.nps.gov/yell/index.htm","fullName":"Yellowstone National Park","parkCode":"yell","latitude":"44.59824417","longitude":"-110.5471695","states":["ID","MT","WY"],"designation":"National Park"},{"NPS_id":"5D443C5F-19A0-4A06-9CE4-30534A3DD81A","url":"https://www.nps.gov/lecl/index.htm","fullName":"Lewis & Clark National Historic Trail","parkCode":"lecl","latitude":"41.2646141052","longitude":"-95.9245147705","states":["IA","ID","IL","IN","KS","KY","MO","MT","NE","ND","OH","OR","PA","SD","WA","WV"],"designation":"National Historic Trail"},{"NPS_id":"FF52F034-53E3-4F36-AA31-4BEBCC5F007A","url":"https://www.nps.gov/liho/index.htm","fullName":"Lincoln Home National Historic Site","parkCode":"liho","latitude":"39.79715642","longitude":"-89.64513397","states":["IL"],"designation":"National Historic Site"},{"NPS_id":"AD731EF0-685F-4397-88C1-A9BB21EBF034","url":"https://www.nps.gov/mopi/index.htm","fullName":"Mormon Pioneer National Historic Trail","parkCode":"mopi","latitude":"41.2650321741","longitude":"-101.84083756","states":["IL","IA","NE","UT","WY"],"designation":"National Historic Trail"},{"NPS_id":"62389727-B407-49A8-8EE9-FE6A6491B395","url":"https://www.nps.gov/neph/index.htm","fullName":"New Philadelphia National Historic Site","parkCode":"neph","latitude":"39.69803","longitude":"-90.96131","states":["IL"],"designation":"National Historic Site"},{"NPS_id":"36223C80-D2F3-45E3-9C44-BEA58A072985","url":"https://www.nps.gov/pull/index.htm","fullName":"Pullman National Historical Park","parkCode":"pull","latitude":"41.69429163","longitude":"-87.60873824","states":["IL"],"designation":"National Historical Park"},{"NPS_id":"07A92FEB-682E-4895-8070-3323BC6F9EF7","url":"https://www.nps.gov/trte/index.htm","fullName":"Trail Of Tears National Historic Trail","parkCode":"trte","latitude":"36.0530021046","longitude":"-89.6761041963","states":["AL","AR","GA","IL","KY","MO","NC","OK","TN"],"designation":"National Historic Trail"},{"NPS_id":"48C4BDA1-98A3-441A-87FF-BAAB3AA043AE","url":"https://www.nps.gov/gero/index.htm","fullName":"George Rogers Clark National Historical Park","parkCode":"gero","latitude":"38.67912659","longitude":"-87.53545212","states":["IN"],"designation":"National Historical Park"},{"NPS_id":"473EFACE-EE15-4A4F-AA6C-666810A9E27D","url":"https://www.nps.gov/indu/index.htm","fullName":"Indiana Dunes National Park","parkCode":"indu","latitude":"41.63765525","longitude":"-87.09647445","states":["IN"],"designation":"National Park"},{"NPS_id":"5D443C5F-19A0-4A06-9CE4-30534A3DD81A","url":"https://www.nps.gov/lecl/index.htm","fullName":"Lewis & Clark National Historic Trail","parkCode":"lecl","latitude":"41.2646141052","longitude":"-95.9245147705","states":["IA","ID","IL","IN","KS","KY","MO","MT","NE","ND","OH","OR","PA","SD","WA","WV"],"designation":"National Historic Trail"},{"NPS_id":"E9A0608F-46D6-4072-939F-C81E27AAB236","url":"https://www.nps.gov/libo/index.htm","fullName":"Lincoln Boyhood National Memorial","parkCode":"libo","latitude":"38.11817004","longitude":"-86.99656861","states":["IN"],"designation":"National Memorial"},{"NPS_id":"0265E5A4-576A-4626-882A-05971DEE9B76","url":"https://www.nps.gov/efmo/index.htm","fullName":"Effigy Mounds National Monument","parkCode":"efmo","latitude":"43.08095081","longitude":"-91.19687517","states":["IA"],"designation":"National Monument"},{"NPS_id":"43AC146A-0903-4E4A-BD7D-7169655009C7","url":"https://www.nps.gov/heho/index.htm","fullName":"Herbert Hoover National Historic Site","parkCode":"heho","latitude":"41.66793558","longitude":"-91.35232139","states":["IA"],"designation":"National Historic Site"},{"NPS_id":"5D443C5F-19A0-4A06-9CE4-30534A3DD81A","url":"https://www.nps.gov/lecl/index.htm","fullName":"Lewis & Clark National Historic Trail","parkCode":"lecl","latitude":"41.2646141052","longitude":"-95.9245147705","states":["IA","ID","IL","IN","KS","KY","MO","MT","NE","ND","OH","OR","PA","SD","WA","WV"],"designation":"National Historic Trail"},{"NPS_id":"AD731EF0-685F-4397-88C1-A9BB21EBF034","url":"https://www.nps.gov/mopi/index.htm","fullName":"Mormon Pioneer National Historic Trail","parkCode":"mopi","latitude":"41.2650321741","longitude":"-101.84083756","states":["IL","IA","NE","UT","WY"],"designation":"National Historic Trail"},{"NPS_id":"E2F59F29-1F3A-43B9-A361-7E74E5FDDEB1","url":"https://www.nps.gov/brvb/index.htm","fullName":"Brown v. Board of Education National Historical Park","parkCode":"brvb","latitude":"39.03787665","longitude":"-95.67614437","states":["KS"],"designation":"National Historical Park"},{"NPS_id":"B39C368F-CB27-49EC-B2A9-E6C1552430FB","url":"https://www.nps.gov/cali/index.htm","fullName":"California National Historic Trail","parkCode":"cali","latitude":"42.3999643979","longitude":"-108.702415369","states":["CA","CO","ID","KS","MO","NE","NV","OR","UT","WY"],"designation":"National Historic Trail"},{"NPS_id":"6C6ABAB9-7F52-4172-8009-817612726CFF","url":"https://www.nps.gov/fols/index.htm","fullName":"Fort Larned National Historic Site","parkCode":"fols","latitude":"38.18047491","longitude":"-99.21836664","states":["KS"],"designation":"National Historic Site"},{"NPS_id":"8CA5777A-FFDF-45AE-9705-C4DE268D1BCC","url":"https://www.nps.gov/fosc/index.htm","fullName":"Fort Scott National Historic Site","parkCode":"fosc","latitude":"37.84358849","longitude":"-94.70429174","states":["KS"],"designation":"National Historic Site"},{"NPS_id":"5D443C5F-19A0-4A06-9CE4-30534A3DD81A","url":"https://www.nps.gov/lecl/index.htm","fullName":"Lewis & Clark National Historic Trail","parkCode":"lecl","latitude":"41.2646141052","longitude":"-95.9245147705","states":["IA","ID","IL","IN","KS","KY","MO","MT","NE","ND","OH","OR","PA","SD","WA","WV"],"designation":"National Historic Trail"},{"NPS_id":"C8E59368-4CCA-4513-B2C5-D055BC0DA491","url":"https://www.nps.gov/nico/index.htm","fullName":"Nicodemus National Historic Site","parkCode":"nico","latitude":"39.39167606","longitude":"-99.61680329","states":["KS"],"designation":"National Historic Site"},{"NPS_id":"4E072F12-3E85-4219-B456-A8F04C688879","url":"https://www.nps.gov/oreg/index.htm","fullName":"Oregon National Historic Trail","parkCode":"oreg","latitude":"41.9876977831","longitude":"-109.634200841","states":["ID","KS","MO","NE","OR","WA","WY"],"designation":"National Historic Trail"},{"NPS_id":"A0125F49-080E-4292-BD91-C1FA1657F547","url":"https://www.nps.gov/poex/index.htm","fullName":"Pony Express National Historic Trail","parkCode":"poex","latitude":"42.2365761128","longitude":"-109.266148417","states":["CA","CO","KS","MO","NE","NV","UT","WY"],"designation":"National Historic Trail"},{"NPS_id":"2B14155F-0E31-43F3-8B87-8B1DA6FA0BF7","url":"https://www.nps.gov/safe/index.htm","fullName":"Santa Fe National Historic Trail","parkCode":"safe","latitude":"37.7276522226","longitude":"-99.921969227","states":["CO","KS","MO","NM","OK"],"designation":"National Historic Trail"},{"NPS_id":"76F87FF4-4BAD-453E-8013-2DA8924A5D94","url":"https://www.nps.gov/tapr/index.htm","fullName":"Tallgrass Prairie National Preserve","parkCode":"tapr","latitude":"38.44023613","longitude":"-96.5670822","states":["KS"],"designation":"National Preserve"},{"NPS_id":"77E0D7F0-1942-494A-ACE2-9004D2BDC59E","url":"https://www.nps.gov/abli/index.htm","fullName":"Abraham Lincoln Birthplace National Historical Park","parkCode":"abli","latitude":"37.5858662","longitude":"-85.67330523","states":["KY"],"designation":"National Historical Park"},{"NPS_id":"61EC5C9A-1A38-4040-AE38-E62FD2A9A836","url":"https://www.nps.gov/biso/index.htm","fullName":"Big South Fork National River & Recreation Area","parkCode":"biso","latitude":"36.5348388","longitude":"-84.66506688","states":["KY","TN"],"designation":"National River & Recreation Area"},{"NPS_id":"2FB7A664-0F66-49A3-9460-194F4073BA3F","url":"https://www.nps.gov/cane/index.htm","fullName":"Camp Nelson National Monument","parkCode":"cane","latitude":"37.7970179913","longitude":"-84.598168306","states":["KY"],"designation":"National Monument"},{"NPS_id":"F341E5A4-959B-4D87-B886-23A884633D33","url":"https://www.nps.gov/cuga/index.htm","fullName":"Cumberland Gap National Historical Park","parkCode":"cuga","latitude":"36.62503076","longitude":"-83.6114083","states":["KY","TN","VA"],"designation":"National Historical Park"},{"NPS_id":"7DD7A9E8-E1E9-4759-A764-5FF81FC520ED","url":"https://www.nps.gov/fodo/index.htm","fullName":"Fort Donelson National Battlefield","parkCode":"fodo","latitude":"36.49019078","longitude":"-87.92445695","states":["KY","TN"],"designation":"National Battlefield"},{"NPS_id":"5D443C5F-19A0-4A06-9CE4-30534A3DD81A","url":"https://www.nps.gov/lecl/index.htm","fullName":"Lewis & Clark National Historic Trail","parkCode":"lecl","latitude":"41.2646141052","longitude":"-95.9245147705","states":["IA","ID","IL","IN","KS","KY","MO","MT","NE","ND","OH","OR","PA","SD","WA","WV"],"designation":"National Historic Trail"},{"NPS_id":"6A1737A1-6848-4087-AAF7-68A427247357","url":"https://www.nps.gov/maca/index.htm","fullName":"Mammoth Cave National Park","parkCode":"maca","latitude":"37.19760458","longitude":"-86.13090198","states":["KY"],"designation":"National Park"},{"NPS_id":"0260D050-761A-4446-AB05-641986F9FDFB","url":"https://www.nps.gov/misp/index.htm","fullName":"Mill Springs Battlefield National Monument","parkCode":"misp","latitude":"37.0688158602","longitude":"-84.7375361304","states":["KY"],"designation":"National Monument"},{"NPS_id":"07A92FEB-682E-4895-8070-3323BC6F9EF7","url":"https://www.nps.gov/trte/index.htm","fullName":"Trail Of Tears National Historic Trail","parkCode":"trte","latitude":"36.0530021046","longitude":"-89.6761041963","states":["AL","AR","GA","IL","KY","MO","NC","OK","TN"],"designation":"National Historic Trail"},{"NPS_id":"55ABA58B-B19E-4851-BDE1-1C0712B2BE2C","url":"https://www.nps.gov/cari/index.htm","fullName":"Cane River Creole National Historical Park","parkCode":"cari","latitude":"31.65408447","longitude":"-93.00131977","states":["LA"],"designation":"National Historical Park"},{"NPS_id":"111711AC-B056-4CCF-B08F-35EE0E313CF4","url":"https://www.nps.gov/elte/index.htm","fullName":"El Camino Real de los Tejas National Historic Trail","parkCode":"elte","latitude":"30.0922964581","longitude":"-97.3397666725","states":["TX","LA"],"designation":"National Historic Trail"},{"NPS_id":"ED57A2B1-2560-471C-82A7-7EF6BC3486F8","url":"https://www.nps.gov/jela/index.htm","fullName":"Jean Lafitte National Historical Park and Preserve","parkCode":"jela","latitude":"29.81739855","longitude":"-90.1402241","states":["LA"],"designation":"National Historical Park and Preserve"},{"NPS_id":"CB014DE3-3483-4E36-BC35-3CC7E9F60529","url":"https://www.nps.gov/jazz/index.htm","fullName":"New Orleans Jazz National Historical Park","parkCode":"jazz","latitude":"29.96303129","longitude":"-90.06749669","states":["LA"],"designation":"National Historical Park"},{"NPS_id":"DC9185D6-CCA9-4F40-AE53-5D77DE35E202","url":"https://www.nps.gov/popo/index.htm","fullName":"Poverty Point National Monument","parkCode":"popo","latitude":"32.6424361","longitude":"-91.40829834","states":["LA"],"designation":"National Monument"},{"NPS_id":"45408368-12DB-4950-92A8-E26AC85E3724","url":"https://www.nps.gov/vick/index.htm","fullName":"Vicksburg National Military Park","parkCode":"vick","latitude":"32.3621286","longitude":"-90.85030186","states":["MS","LA"],"designation":"National Military Park"},{"NPS_id":"6DA17C86-088E-4B4D-B862-7C1BD5CF236B","url":"https://www.nps.gov/acad/index.htm","fullName":"Acadia National Park","parkCode":"acad","latitude":"44.409286","longitude":"-68.247501","states":["ME"],"designation":"National Park"},{"NPS_id":"FAEF5684-83A4-4CF2-A701-60CF8D4014BD","url":"https://www.nps.gov/appa/index.htm","fullName":"Appalachian National Scenic Trail","parkCode":"appa","latitude":"40.41029575","longitude":"-76.4337548","states":["CT","GA","MA","MD","ME","NC","NH","NJ","NY","PA","TN","VA","VT","WV"],"designation":"National Scenic Trail"},{"NPS_id":"406F7D87-F34F-41C9-9CCE-9FD53ABBA9A7","url":"https://www.nps.gov/kaww/index.htm","fullName":"Katahdin Woods and Waters National Monument","parkCode":"kaww","latitude":"45.9567565918","longitude":"-68.7122879028","states":["ME"],"designation":"National Monument"},{"NPS_id":"A609887A-BB48-47AA-A6F6-4C7F77346FC6","url":"https://www.nps.gov/maac/index.htm","fullName":"Maine Acadian Culture","parkCode":"maac","latitude":"47.25102114","longitude":"-68.59447532","states":["ME"],"designation":""},{"NPS_id":"05106DE8-D6F2-4088-9834-79462FBDDA21","url":"https://www.nps.gov/roca/index.htm","fullName":"Roosevelt Campobello International Park","parkCode":"roca","latitude":"44.8736","longitude":"-66.9621","states":["ME"],"designation":"International Park"},{"NPS_id":"57B2D95A-6D3E-49D6-BF73-623D6BD33D06","url":"https://www.nps.gov/sacr/index.htm","fullName":"Saint Croix Island International Historic Site","parkCode":"sacr","latitude":"45.12858838","longitude":"-67.13363651","states":["ME"],"designation":"International Historic Site"},{"NPS_id":"8415526C-C932-4236-A634-2D89DF718936","url":"https://www.nps.gov/anti/index.htm","fullName":"Antietam National Battlefield","parkCode":"anti","latitude":"39.46763452","longitude":"-77.73828017","states":["MD"],"designation":"National Battlefield"},{"NPS_id":"FAEF5684-83A4-4CF2-A701-60CF8D4014BD","url":"https://www.nps.gov/appa/index.htm","fullName":"Appalachian National Scenic Trail","parkCode":"appa","latitude":"40.41029575","longitude":"-76.4337548","states":["CT","GA","MA","MD","ME","NC","NH","NJ","NY","PA","TN","VA","VT","WV"],"designation":"National Scenic Trail"},{"NPS_id":"307BE169-345D-472C-8128-20F1D59864A7","url":"https://www.nps.gov/asis/index.htm","fullName":"Assateague Island National Seashore","parkCode":"asis","latitude":"38.05593172","longitude":"-75.24524611","states":["MD","VA"],"designation":"National Seashore"},{"NPS_id":"A21F01BC-9E47-4DBE-8655-A1651FC2C1B1","url":"https://www.nps.gov/bawa/index.htm","fullName":"Baltimore-Washington Parkway","parkCode":"bawa","latitude":"39.02604289","longitude":"-76.85410921","states":["MD"],"designation":"Parkway"},{"NPS_id":"481CEBB8-1942-4FAE-8D89-9902E7B9EECA","url":"https://www.nps.gov/cajo/index.htm","fullName":"Captain John Smith Chesapeake National Historic Trail","parkCode":"cajo","latitude":"38.971601","longitude":"-76.483355","states":["VA","MD","DE","DC","PA","NY"],"designation":"National Historic Trail"},{"NPS_id":"2977669B-4B2E-4044-B2CC-701D9521E4AC","url":"https://www.nps.gov/cato/index.htm","fullName":"Catoctin Mountain Park","parkCode":"cato","latitude":"39.65068457","longitude":"-77.46417665","states":["MD"],"designation":"Park"},{"NPS_id":"9192FFEE-4D88-4A03-A054-F47C33F0C3E9","url":"https://www.nps.gov/choh/index.htm","fullName":"Chesapeake & Ohio Canal National Historical Park","parkCode":"choh","latitude":"39.000283692","longitude":"-77.2481399539","states":["DC","MD","WV"],"designation":"National Historical Park"},{"NPS_id":"25554F74-A4AB-4C49-9071-341F00F0DAB8","url":"https://www.nps.gov/cbpo/index.htm","fullName":"Chesapeake Bay","parkCode":"cbpo","latitude":"38.971601","longitude":"-76.483355","states":["DC","DE","MD","NY","PA","VA","WV"],"designation":""},{"NPS_id":"8A6C3A35-C48B-4125-82E1-939A1B3A535C","url":"https://www.nps.gov/cwdw/index.htm","fullName":"Civil War Defenses of Washington","parkCode":"cwdw","latitude":"38.9644","longitude":"-77.0292","states":["DC","MD","VA"],"designation":""},{"NPS_id":"80B93073-3A9D-4BD8-A8F5-5CB84CD35FE1","url":"https://www.nps.gov/clba/index.htm","fullName":"Clara Barton National Historic Site","parkCode":"clba","latitude":"38.96762882","longitude":"-77.14009689","states":["MD"],"designation":"National Historic Site"},{"NPS_id":"649C339B-35AE-4A4D-96A5-B54E46BA8D71","url":"https://www.nps.gov/fofo/index.htm","fullName":"Fort Foote Park","parkCode":"fofo","latitude":"38.76901785","longitude":"-77.02812387","states":["MD"],"designation":"Park"},{"NPS_id":"B0DE766C-E87F-48BE-A94F-C9D774AD52FD","url":"https://www.nps.gov/fomc/index.htm","fullName":"Fort McHenry National Monument and Historic Shrine","parkCode":"fomc","latitude":"39.26395314","longitude":"-76.58044165","states":["MD"],"designation":"National Monument and Historic Shrine"},{"NPS_id":"E49B3D75-8676-4417-BFAD-8B3E23B1418B","url":"https://www.nps.gov/fowa/index.htm","fullName":"Fort Washington Park","parkCode":"fowa","latitude":"38.7117","longitude":"-77.0302","states":["MD"],"designation":"Park"},{"NPS_id":"E6D5BB41-3251-469F-ABDA-7B43B966F0CF","url":"https://www.nps.gov/gwmp/index.htm","fullName":"George Washington Memorial Parkway","parkCode":"gwmp","latitude":"38.9628","longitude":"-77.1495","states":["DC","MD","VA"],"designation":"Memorial Parkway"},{"NPS_id":"3FBC6D2D-C61B-4399-BC35-1B00C92C406A","url":"https://www.nps.gov/glec/index.htm","fullName":"Glen Echo Park","parkCode":"glec","latitude":"38.96912315","longitude":"-77.14012206","states":["MD"],"designation":"Park"},{"NPS_id":"8CEE28AB-50AE-4AC6-ACEF-B209A5346743","url":"https://www.nps.gov/gree/index.htm","fullName":"Greenbelt Park","parkCode":"gree","latitude":"38.98328267","longitude":"-76.89722133","states":["MD"],"designation":"Park"},{"NPS_id":"5FD56750-4A13-4615-B987-793AC356B320","url":"https://www.nps.gov/hamp/index.htm","fullName":"Hampton National Historic Site","parkCode":"hamp","latitude":"39.4175296","longitude":"-76.58781182","states":["MD"],"designation":"National Historic Site"},{"NPS_id":"211E9758-FA5F-4BAA-AABF-D939B7C07A79","url":"https://www.nps.gov/haha/index.htm","fullName":"Harmony Hall","parkCode":"haha","latitude":"38.74646351","longitude":"-77.00377069","states":["MD"],"designation":""},{"NPS_id":"2828F5DF-F4E9-48DE-9D4D-2EC39E0276B2","url":"https://www.nps.gov/hafe/index.htm","fullName":"Harpers Ferry National Historical Park","parkCode":"hafe","latitude":"39.31865949","longitude":"-77.74088546","states":["WV","VA","MD"],"designation":"National Historical Park"},{"NPS_id":"380E7DFB-6F37-499F-8996-356EC5F0DDE5","url":"https://www.nps.gov/hatu/index.htm","fullName":"Harriet Tubman Underground Railroad National Historical Park","parkCode":"hatu","latitude":"38.4548643511","longitude":"-76.1373451376","states":["MD"],"designation":"National Historical Park"},{"NPS_id":"8F17B3D6-BFA2-49F2-B553-C10B2B3A3EED","url":"https://www.nps.gov/mono/index.htm","fullName":"Monocacy National Battlefield","parkCode":"mono","latitude":"39.36084236","longitude":"-77.39637677","states":["MD"],"designation":"National Battlefield"},{"NPS_id":"5536A389-5457-4E3F-84E2-D67861BB34D9","url":"https://www.nps.gov/oxhi/index.htm","fullName":"Oxon Cove Park & Oxon Hill Farm","parkCode":"oxhi","latitude":"38.80578214","longitude":"-77.01131457","states":["MD"],"designation":""},{"NPS_id":"0477F67A-A350-449F-B001-848F867F2CA2","url":"https://www.nps.gov/pisc/index.htm","fullName":"Piscataway Park","parkCode":"pisc","latitude":"38.6929","longitude":"-77.067","states":["MD"],"designation":"Park"},{"NPS_id":"B7429C72-D8CA-46D9-8E89-E659259D8EEF","url":"https://www.nps.gov/pohe/index.htm","fullName":"Potomac Heritage National Scenic Trail","parkCode":"pohe","latitude":"39.15060133","longitude":"-77.52301085","states":["DC","MD","PA","VA"],"designation":"National Scenic Trail"},{"NPS_id":"F22ED7C4-DDB8-43F8-AAF2-D474864352DA","url":"https://www.nps.gov/stsp/index.htm","fullName":"Star-Spangled Banner National Historic Trail","parkCode":"stsp","latitude":"39.2872505188","longitude":"-76.6034317017","states":["MD","VA","DC"],"designation":"National Historic Trail"},{"NPS_id":"DD9075B8-4AC2-4FA4-83F4-A08DFD705C25","url":"https://www.nps.gov/thst/index.htm","fullName":"Thomas Stone National Historic Site","parkCode":"thst","latitude":"38.52934443","longitude":"-77.037813","states":["MD"],"designation":"National Historic Site"},{"NPS_id":"3D547E73-F0BF-4FEA-9CAC-9611D024E2FF","url":"https://www.nps.gov/waro/index.htm","fullName":"Washington-Rochambeau Revolutionary Route National Historic Trail","parkCode":"waro","latitude":"40.0958204557","longitude":"-74.8563515109","states":["MA","RI","CT","NY","NJ","PA","DE","MD","VA","DC"],"designation":"National Historic Trail"},{"NPS_id":"E4C7784E-66A0-4D44-87D0-3E072F5FEF43","url":"https://www.nps.gov/adam/index.htm","fullName":"Adams National Historical Park","parkCode":"adam","latitude":"42.2553961","longitude":"-71.01160356","states":["MA"],"designation":"National Historical Park"},{"NPS_id":"FAEF5684-83A4-4CF2-A701-60CF8D4014BD","url":"https://www.nps.gov/appa/index.htm","fullName":"Appalachian National Scenic Trail","parkCode":"appa","latitude":"40.41029575","longitude":"-76.4337548","states":["CT","GA","MA","MD","ME","NC","NH","NJ","NY","PA","TN","VA","VT","WV"],"designation":"National Scenic Trail"},{"NPS_id":"A36366E7-5663-4531-B0CE-D58928C6D01B","url":"https://www.nps.gov/blrv/index.htm","fullName":"Blackstone River Valley National Historical Park","parkCode":"blrv","latitude":"41.8775792792","longitude":"-71.382433945","states":["RI","MA"],"designation":"National Historical Park"},{"NPS_id":"87F00684-8E1F-4E12-B463-2B5B929A0C74","url":"https://www.nps.gov/boaf/index.htm","fullName":"Boston African American National Historic Site","parkCode":"boaf","latitude":"42.35908295","longitude":"-71.06764181","states":["MA"],"designation":"National Historic Site"},{"NPS_id":"65E0DF4A-4082-4B48-93BD-5021987CDD7A","url":"https://www.nps.gov/boha/index.htm","fullName":"Boston Harbor Islands National Recreation Area","parkCode":"boha","latitude":"42.30905526","longitude":"-70.93941138","states":["MA"],"designation":"National Recreation Area"},{"NPS_id":"81F81EBD-0FE7-4811-88EF-AB071E737D97","url":"https://www.nps.gov/bost/index.htm","fullName":"Boston National Historical Park","parkCode":"bost","latitude":"42.36957407","longitude":"-71.05536763","states":["MA"],"designation":"National Historical Park"},{"NPS_id":"DE0A8012-5324-4F5C-98DA-0EE6589FDFB3","url":"https://www.nps.gov/caco/index.htm","fullName":"Cape Cod National Seashore","parkCode":"caco","latitude":"41.92381465","longitude":"-70.04319832","states":["MA"],"designation":"National Seashore"},{"NPS_id":"CDC0FE7F-C249-466C-88B2-B81FC5279B91","url":"https://www.nps.gov/frla/index.htm","fullName":"Frederick Law Olmsted National Historic Site","parkCode":"frla","latitude":"42.32424266","longitude":"-71.13202567","states":["MA"],"designation":"National Historic Site"},{"NPS_id":"13E32BB8-D80B-45FA-ABF7-9C0CA5417ADC","url":"https://www.nps.gov/jofi/index.htm","fullName":"John Fitzgerald Kennedy National Historic Site","parkCode":"jofi","latitude":"42.34693694","longitude":"-71.12323846","states":["MA"],"designation":"National Historic Site"},{"NPS_id":"CE9470A1-A8D7-49DE-A555-1A32FBBAB0FF","url":"https://www.nps.gov/long/index.htm","fullName":"Longfellow House Washington's Headquarters National Historic Site","parkCode":"long","latitude":"42.37698854","longitude":"-71.12636956","states":["MA"],"designation":"National Historic Site"},{"NPS_id":"FA6450A4-D2F1-4B35-9817-EA01918597A6","url":"https://www.nps.gov/lowe/index.htm","fullName":"Lowell National Historical Park","parkCode":"lowe","latitude":"42.6455371","longitude":"-71.31588673","states":["MA"],"designation":"National Historical Park"},{"NPS_id":"3AB31FA9-E174-4A03-952D-397944D3A3C8","url":"https://www.nps.gov/mima/index.htm","fullName":"Minute Man National Historical Park","parkCode":"mima","latitude":"42.4562778","longitude":"-71.30738884","states":["MA"],"designation":"National Historical Park"},{"NPS_id":"848DFACA-B486-4BC4-AD71-C834F7713793","url":"https://www.nps.gov/nebe/index.htm","fullName":"New Bedford Whaling National Historical Park","parkCode":"nebe","latitude":"41.63540552","longitude":"-70.92322321","states":["MA"],"designation":"National Historical Park"},{"NPS_id":"CF83E09C-3E55-4B5A-9D8B-E833CF6FEB5A","url":"https://www.nps.gov/neen/index.htm","fullName":"New England National Scenic Trail","parkCode":"neen","latitude":"42.2915819137","longitude":"-72.5242767334","states":["MA","CT"],"designation":"National Scenic Trail"},{"NPS_id":"3C5998C3-F130-4E4C-8BA4-C1B25E728CE0","url":"https://www.nps.gov/sama/index.htm","fullName":"Salem Maritime National Historic Site","parkCode":"sama","latitude":"42.52024529","longitude":"-70.88640867","states":["MA"],"designation":"National Historic Site"},{"NPS_id":"A83EFD38-9FCF-4996-A957-FE416A8C6B6D","url":"https://www.nps.gov/sair/index.htm","fullName":"Saugus Iron Works National Historic Site","parkCode":"sair","latitude":"42.46830664","longitude":"-71.0076953","states":["MA"],"designation":"National Historic Site"},{"NPS_id":"E01A7425-C74B-4E71-853D-681AD2FB948A","url":"https://www.nps.gov/spar/index.htm","fullName":"Springfield Armory National Historic Site","parkCode":"spar","latitude":"42.1086368","longitude":"-72.57967415","states":["MA"],"designation":"National Historic Site"},{"NPS_id":"3D547E73-F0BF-4FEA-9CAC-9611D024E2FF","url":"https://www.nps.gov/waro/index.htm","fullName":"Washington-Rochambeau Revolutionary Route National Historic Trail","parkCode":"waro","latitude":"40.0958204557","longitude":"-74.8563515109","states":["MA","RI","CT","NY","NJ","PA","DE","MD","VA","DC"],"designation":"National Historic Trail"},{"NPS_id":"0F6893CF-FC15-4AC5-8C95-E70FC9C21B1A","url":"https://www.nps.gov/isro/index.htm","fullName":"Isle Royale National Park","parkCode":"isro","latitude":"48.01145819","longitude":"-88.82780657","states":["MI"],"designation":"National Park"},{"NPS_id":"E25D6277-11D8-425F-8498-718C98B13854","url":"https://www.nps.gov/kewe/index.htm","fullName":"Keweenaw National Historical Park","parkCode":"kewe","latitude":"47.1792308","longitude":"-88.52275344","states":["MI"],"designation":"National Historical Park"},{"NPS_id":"4BE453C2-6527-484F-90D6-98057901EBDF","url":"https://www.nps.gov/noco/index.htm","fullName":"North Country National Scenic Trail","parkCode":"noco","latitude":"46.334400743","longitude":"-90.8165630499","states":["MI","MN","ND","NY","OH","PA","VT","WI"],"designation":"National Scenic Trail"},{"NPS_id":"8D803E2F-FB28-4DC3-9EDC-7FDAE185C092","url":"https://www.nps.gov/piro/index.htm","fullName":"Pictured Rocks National Lakeshore","parkCode":"piro","latitude":"46.56435642","longitude":"-86.31628733","states":["MI"],"designation":"National Lakeshore"},{"NPS_id":"0AEC82D5-0D49-492A-9936-DBE44AF69F09","url":"https://www.nps.gov/rira/index.htm","fullName":"River Raisin National Battlefield Park","parkCode":"rira","latitude":"41.91291085","longitude":"-83.37620464","states":["MI"],"designation":"National Battlefield Park"},{"NPS_id":"739AFEBE-BF00-4A3E-A369-85E74F6E6739","url":"https://www.nps.gov/slbe/index.htm","fullName":"Sleeping Bear Dunes National Lakeshore","parkCode":"slbe","latitude":"44.92844962","longitude":"-86.02706591","states":["MI"],"designation":"National Lakeshore"},{"NPS_id":"E463E13F-FCD4-41B3-AEF3-BA3199E04399","url":"https://www.nps.gov/grpo/index.htm","fullName":"Grand Portage National Monument","parkCode":"grpo","latitude":"47.99294217","longitude":"-89.75573031","states":["MN"],"designation":"National Monument"},{"NPS_id":"913100E9-987E-4659-8124-DFCEE3158FCB","url":"https://www.nps.gov/miss/index.htm","fullName":"Mississippi National River & Recreation Area","parkCode":"miss","latitude":"44.942487","longitude":"-93.098712","states":["MN"],"designation":"National River & Recreation Area"},{"NPS_id":"4BE453C2-6527-484F-90D6-98057901EBDF","url":"https://www.nps.gov/noco/index.htm","fullName":"North Country National Scenic Trail","parkCode":"noco","latitude":"46.334400743","longitude":"-90.8165630499","states":["MI","MN","ND","NY","OH","PA","VT","WI"],"designation":"National Scenic Trail"},{"NPS_id":"932C699A-5680-4EA3-8C62-69A6A7D286C5","url":"https://www.nps.gov/pipe/index.htm","fullName":"Pipestone National Monument","parkCode":"pipe","latitude":"44.01351958","longitude":"-96.32475523","states":["MN"],"designation":"National Monument"},{"NPS_id":"5CB26B91-B888-46E0-95E1-0683A63C45B0","url":"https://www.nps.gov/sacn/index.htm","fullName":"Saint Croix National Scenic Riverway","parkCode":"sacn","latitude":"45.70019235","longitude":"-92.36126685","states":["WI","MN"],"designation":"National Scenic Riverway"},{"NPS_id":"859727CB-2812-40DF-B8DB-D4AE9EA00089","url":"https://www.nps.gov/voya/index.htm","fullName":"Voyageurs National Park","parkCode":"voya","latitude":"48.48370609","longitude":"-92.8382913","states":["MN"],"designation":"National Park"},{"NPS_id":"F6555AB7-654F-4418-8827-F91F54536C04","url":"https://www.nps.gov/brcr/index.htm","fullName":"Brices Cross Roads National Battlefield Site","parkCode":"brcr","latitude":"34.50611958","longitude":"-88.72889343","states":["MS"],"designation":"National Battlefield Site"},{"NPS_id":"ACA78E27-3C26-4C8B-8CCB-9F0B5BED247F","url":"https://www.nps.gov/guis/index.htm","fullName":"Gulf Islands National Seashore","parkCode":"guis","latitude":"30.29924926","longitude":"-87.75064297","states":["FL","MS"],"designation":"National Seashore"},{"NPS_id":"01DE3F7C-354D-4468-AC36-2CF5274AB68E","url":"https://www.nps.gov/memy/index.htm","fullName":"Medgar and Myrlie Evers Home National Monument","parkCode":"memy","latitude":"32.34096274","longitude":"-90.21264553","states":["MS"],"designation":"National Monument"},{"NPS_id":"259CE799-32C4-4CA9-BBDF-2F305018289C","url":"https://www.nps.gov/natc/index.htm","fullName":"Natchez National Historical Park","parkCode":"natc","latitude":"31.54697621","longitude":"-91.39040665","states":["MS"],"designation":"National Historical Park"},{"NPS_id":"3ACC9199-1234-4E50-B80E-65DB783B4BB7","url":"https://www.nps.gov/natt/index.htm","fullName":"Natchez Trace National Scenic Trail","parkCode":"natt","latitude":"34.330290333","longitude":"-88.7100104094","states":["AL","MS","TN"],"designation":"National Scenic Trail"},{"NPS_id":"E8A0F0B6-983F-4B9A-9A67-BFF6F9E4204A","url":"https://www.nps.gov/natr/index.htm","fullName":"Natchez Trace Parkway","parkCode":"natr","latitude":"33.78002293","longitude":"-89.03092439","states":["AL","MS","TN"],"designation":"Parkway"},{"NPS_id":"B6E3A992-3217-4BC0-AC64-A699B45971CA","url":"https://www.nps.gov/shil/index.htm","fullName":"Shiloh National Military Park","parkCode":"shil","latitude":"35.13850907","longitude":"-88.3421072","states":["TN","MS"],"designation":"National Military Park"},{"NPS_id":"0C7D40DF-85BC-439E-BE58-34E11C1D4095","url":"https://www.nps.gov/tupe/index.htm","fullName":"Tupelo National Battlefield","parkCode":"tupe","latitude":"34.25557705","longitude":"-88.73708623","states":["MS"],"designation":"National Battlefield"},{"NPS_id":"45408368-12DB-4950-92A8-E26AC85E3724","url":"https://www.nps.gov/vick/index.htm","fullName":"Vicksburg National Military Park","parkCode":"vick","latitude":"32.3621286","longitude":"-90.85030186","states":["MS","LA"],"designation":"National Military Park"},{"NPS_id":"B39C368F-CB27-49EC-B2A9-E6C1552430FB","url":"https://www.nps.gov/cali/index.htm","fullName":"California National Historic Trail","parkCode":"cali","latitude":"42.3999643979","longitude":"-108.702415369","states":["CA","CO","ID","KS","MO","NE","NV","OR","UT","WY"],"designation":"National Historic Trail"},{"NPS_id":"BD588493-EC77-4B97-B73E-3BA444864DC5","url":"https://www.nps.gov/jeff/index.htm","fullName":"Gateway Arch National Park","parkCode":"jeff","latitude":"38.6258069","longitude":"-90.1892508","states":["MO"],"designation":"National Park"},{"NPS_id":"56A5A3B1-4F49-4517-86B8-AE2F272D0C42","url":"https://www.nps.gov/gwca/index.htm","fullName":"George Washington Carver National Monument","parkCode":"gwca","latitude":"36.9871322","longitude":"-94.35522737","states":["MO"],"designation":"National Monument"},{"NPS_id":"76F393BA-D39F-43E9-B0A3-F746E2FEAD85","url":"https://www.nps.gov/hstr/index.htm","fullName":"Harry S Truman National Historic Site","parkCode":"hstr","latitude":"38.92711967","longitude":"-94.5162488","states":["MO"],"designation":"National Historic Site"},{"NPS_id":"5D443C5F-19A0-4A06-9CE4-30534A3DD81A","url":"https://www.nps.gov/lecl/index.htm","fullName":"Lewis & Clark National Historic Trail","parkCode":"lecl","latitude":"41.2646141052","longitude":"-95.9245147705","states":["IA","ID","IL","IN","KS","KY","MO","MT","NE","ND","OH","OR","PA","SD","WA","WV"],"designation":"National Historic Trail"},{"NPS_id":"4E072F12-3E85-4219-B456-A8F04C688879","url":"https://www.nps.gov/oreg/index.htm","fullName":"Oregon National Historic Trail","parkCode":"oreg","latitude":"41.9876977831","longitude":"-109.634200841","states":["ID","KS","MO","NE","OR","WA","WY"],"designation":"National Historic Trail"},{"NPS_id":"CEC2A157-CDDC-4F11-BBE5-0AA2CEA35ADB","url":"https://www.nps.gov/ozar/index.htm","fullName":"Ozark National Scenic Riverways","parkCode":"ozar","latitude":"37.13968894","longitude":"-91.25709817","states":["MO"],"designation":"National Scenic Riverways"},{"NPS_id":"A0125F49-080E-4292-BD91-C1FA1657F547","url":"https://www.nps.gov/poex/index.htm","fullName":"Pony Express National Historic Trail","parkCode":"poex","latitude":"42.2365761128","longitude":"-109.266148417","states":["CA","CO","KS","MO","NE","NV","UT","WY"],"designation":"National Historic Trail"},{"NPS_id":"2B14155F-0E31-43F3-8B87-8B1DA6FA0BF7","url":"https://www.nps.gov/safe/index.htm","fullName":"Santa Fe National Historic Trail","parkCode":"safe","latitude":"37.7276522226","longitude":"-99.921969227","states":["CO","KS","MO","NM","OK"],"designation":"National Historic Trail"},{"NPS_id":"EDD278F5-E9A8-4A40-BA41-9809ED8E025D","url":"https://www.nps.gov/stge/index.htm","fullName":"Ste. Geneviève National Historical Park","parkCode":"stge","latitude":"37.9792171421","longitude":"-90.0432157516","states":["MO"],"designation":"National Historical Park"},{"NPS_id":"07A92FEB-682E-4895-8070-3323BC6F9EF7","url":"https://www.nps.gov/trte/index.htm","fullName":"Trail Of Tears National Historic Trail","parkCode":"trte","latitude":"36.0530021046","longitude":"-89.6761041963","states":["AL","AR","GA","IL","KY","MO","NC","OK","TN"],"designation":"National Historic Trail"},{"NPS_id":"89303609-703C-43CB-BA65-5BB96C3698C2","url":"https://www.nps.gov/ulsg/index.htm","fullName":"Ulysses S Grant National Historic Site","parkCode":"ulsg","latitude":"38.55182374","longitude":"-90.35169255","states":["MO"],"designation":"National Historic Site"},{"NPS_id":"2067FAB2-41D4-43DF-8142-9B1FC40AFDFC","url":"https://www.nps.gov/wicr/index.htm","fullName":"Wilson's Creek National Battlefield","parkCode":"wicr","latitude":"37.1000127","longitude":"-93.40986704","states":["MO"],"designation":"National Battlefield"},{"NPS_id":"3262234F-A56A-447D-AE6C-F5C734ABD3A4","url":"https://www.nps.gov/biho/index.htm","fullName":"Big Hole National Battlefield","parkCode":"biho","latitude":"45.64647324","longitude":"-113.6458443","states":["MT"],"designation":"National Battlefield"},{"NPS_id":"7568A0D8-73B1-44E6-82C7-E10BA1872209","url":"https://www.nps.gov/bica/index.htm","fullName":"Bighorn Canyon National Recreation Area","parkCode":"bica","latitude":"45.13154227","longitude":"-108.1443943","states":["MT","WY"],"designation":"National Recreation Area"},{"NPS_id":"60B1534B-5C3A-402A-ABC6-700B756F69A2","url":"https://www.nps.gov/fous/index.htm","fullName":"Fort Union Trading Post National Historic Site","parkCode":"fous","latitude":"48.00075828","longitude":"-104.0375238","states":["MT","ND"],"designation":"National Historic Site"},{"NPS_id":"2B5178C6-2446-488C-AC31-47E3CEBF7159","url":"https://www.nps.gov/glac/index.htm","fullName":"Glacier National Park","parkCode":"glac","latitude":"48.68414678","longitude":"-113.8009306","states":["MT"],"designation":"National Park"},{"NPS_id":"72A30002-12FA-4738-BCA7-1FA8062214CB","url":"https://www.nps.gov/grko/index.htm","fullName":"Grant-Kohrs Ranch National Historic Site","parkCode":"grko","latitude":"46.41358923","longitude":"-112.7467024","states":["MT"],"designation":"National Historic Site"},{"NPS_id":"07D9E506-B86A-4762-801F-2D333F369D5D","url":"https://www.nps.gov/iafl/index.htm","fullName":"Ice Age Floods National Geologic Trail","parkCode":"iafl","latitude":"46.5669309008","longitude":"-118.992564971","states":["WA","OR","ID","MT"],"designation":"National Geologic Trail"},{"NPS_id":"5D443C5F-19A0-4A06-9CE4-30534A3DD81A","url":"https://www.nps.gov/lecl/index.htm","fullName":"Lewis & Clark National Historic Trail","parkCode":"lecl","latitude":"41.2646141052","longitude":"-95.9245147705","states":["IA","ID","IL","IN","KS","KY","MO","MT","NE","ND","OH","OR","PA","SD","WA","WV"],"designation":"National Historic Trail"},{"NPS_id":"415AA3E1-CE8A-4A24-BD69-451C87107AA4","url":"https://www.nps.gov/libi/index.htm","fullName":"Little Bighorn Battlefield National Monument","parkCode":"libi","latitude":"45.55633048","longitude":"-107.4183614","states":["MT"],"designation":"National Monument"},{"NPS_id":"05F2A0A7-317D-4C4F-95D6-F046BE96310C","url":"https://www.nps.gov/nepe/index.htm","fullName":"Nez Perce National Historical Park","parkCode":"nepe","latitude":"46.07019093","longitude":"-115.8761258","states":["ID","MT","OR","WA"],"designation":"National Historical Park"},{"NPS_id":"F58C6D24-8D10-4573-9826-65D42B8B83AD","url":"https://www.nps.gov/yell/index.htm","fullName":"Yellowstone National Park","parkCode":"yell","latitude":"44.59824417","longitude":"-110.5471695","states":["ID","MT","WY"],"designation":"National Park"},{"NPS_id":"64B9F127-31ED-43C9-882D-D7CD471AF314","url":"https://www.nps.gov/agfo/index.htm","fullName":"Agate Fossil Beds National Monument","parkCode":"agfo","latitude":"42.42170419","longitude":"-103.753886","states":["NE"],"designation":"National Monument"},{"NPS_id":"B39C368F-CB27-49EC-B2A9-E6C1552430FB","url":"https://www.nps.gov/cali/index.htm","fullName":"California National Historic Trail","parkCode":"cali","latitude":"42.3999643979","longitude":"-108.702415369","states":["CA","CO","ID","KS","MO","NE","NV","OR","UT","WY"],"designation":"National Historic Trail"},{"NPS_id":"3E1E316B-2F1A-4F08-8BD0-AE64761D68C2","url":"https://www.nps.gov/home/index.htm","fullName":"Homestead National Historical Park","parkCode":"home","latitude":"40.28802381","longitude":"-96.83387781","states":["NE"],"designation":"National Historical Park"},{"NPS_id":"5D443C5F-19A0-4A06-9CE4-30534A3DD81A","url":"https://www.nps.gov/lecl/index.htm","fullName":"Lewis & Clark National Historic Trail","parkCode":"lecl","latitude":"41.2646141052","longitude":"-95.9245147705","states":["IA","ID","IL","IN","KS","KY","MO","MT","NE","ND","OH","OR","PA","SD","WA","WV"],"designation":"National Historic Trail"},{"NPS_id":"D43C7439-5C0B-4F4F-9D5B-65080F13AD28","url":"https://www.nps.gov/mnrr/index.htm","fullName":"Missouri National Recreational River","parkCode":"mnrr","latitude":"42.7882189","longitude":"-97.59077822","states":["SD","NE"],"designation":"National Recreational River"},{"NPS_id":"AD731EF0-685F-4397-88C1-A9BB21EBF034","url":"https://www.nps.gov/mopi/index.htm","fullName":"Mormon Pioneer National Historic Trail","parkCode":"mopi","latitude":"41.2650321741","longitude":"-101.84083756","states":["IL","IA","NE","UT","WY"],"designation":"National Historic Trail"},{"NPS_id":"406594CB-1532-45CD-82EA-0C03FD2F0422","url":"https://www.nps.gov/niob/index.htm","fullName":"Niobrara National Scenic River","parkCode":"niob","latitude":"42.79413083","longitude":"-99.91870646","states":["NE"],"designation":"National Scenic River"},{"NPS_id":"4E072F12-3E85-4219-B456-A8F04C688879","url":"https://www.nps.gov/oreg/index.htm","fullName":"Oregon National Historic Trail","parkCode":"oreg","latitude":"41.9876977831","longitude":"-109.634200841","states":["ID","KS","MO","NE","OR","WA","WY"],"designation":"National Historic Trail"},{"NPS_id":"A0125F49-080E-4292-BD91-C1FA1657F547","url":"https://www.nps.gov/poex/index.htm","fullName":"Pony Express National Historic Trail","parkCode":"poex","latitude":"42.2365761128","longitude":"-109.266148417","states":["CA","CO","KS","MO","NE","NV","UT","WY"],"designation":"National Historic Trail"},{"NPS_id":"48ED0744-7B8A-4FFD-BEFC-C4AC22A7D649","url":"https://www.nps.gov/scbl/index.htm","fullName":"Scotts Bluff National Monument","parkCode":"scbl","latitude":"41.83464193","longitude":"-103.7071351","states":["NE"],"designation":"National Monument"},{"NPS_id":"B39C368F-CB27-49EC-B2A9-E6C1552430FB","url":"https://www.nps.gov/cali/index.htm","fullName":"California National Historic Trail","parkCode":"cali","latitude":"42.3999643979","longitude":"-108.702415369","states":["CA","CO","ID","KS","MO","NE","NV","OR","UT","WY"],"designation":"National Historic Trail"},{"NPS_id":"FFC9F9C4-D79D-4CA7-AB0F-7A2AD30061CD","url":"https://www.nps.gov/deva/index.htm","fullName":"Death Valley National Park","parkCode":"deva","latitude":"36.48753731","longitude":"-117.134395","states":["CA","NV"],"designation":"National Park"},{"NPS_id":"4C1A549B-080F-4522-9CA7-67BB5A0845CA","url":"https://www.nps.gov/grba/index.htm","fullName":"Great Basin National Park","parkCode":"grba","latitude":"38.94617378","longitude":"-114.2579782","states":["NV"],"designation":"National Park"},{"NPS_id":"7B43EA5B-298C-4BAB-B22D-860B852B40A5","url":"https://www.nps.gov/lake/index.htm","fullName":"Lake Mead National Recreation Area","parkCode":"lake","latitude":"35.96622528","longitude":"-114.3469067","states":["AZ","NV"],"designation":"National Recreation Area"},{"NPS_id":"8B07C05F-9C4A-4799-8428-DFA2BBB733AC","url":"https://www.nps.gov/olsp/index.htm","fullName":"Old Spanish National Historic Trail","parkCode":"olsp","latitude":"37.0791782514","longitude":"-112.114693431","states":["AZ","CA","CO","NV","NM","UT"],"designation":"National Historic Trail"},{"NPS_id":"A0125F49-080E-4292-BD91-C1FA1657F547","url":"https://www.nps.gov/poex/index.htm","fullName":"Pony Express National Historic Trail","parkCode":"poex","latitude":"42.2365761128","longitude":"-109.266148417","states":["CA","CO","KS","MO","NE","NV","UT","WY"],"designation":"National Historic Trail"},{"NPS_id":"A576B9F9-5C0A-453C-8DB0-939883FFA57A","url":"https://www.nps.gov/tusk/index.htm","fullName":"Tule Springs Fossil Beds National Monument","parkCode":"tusk","latitude":"36.3893217","longitude":"-115.3202223","states":["NV"],"designation":"National Monument"},{"NPS_id":"FAEF5684-83A4-4CF2-A701-60CF8D4014BD","url":"https://www.nps.gov/appa/index.htm","fullName":"Appalachian National Scenic Trail","parkCode":"appa","latitude":"40.41029575","longitude":"-76.4337548","states":["CT","GA","MA","MD","ME","NC","NH","NJ","NY","PA","TN","VA","VT","WV"],"designation":"National Scenic Trail"},{"NPS_id":"0FC25325-87AA-4325-A6B7-C404D94B16DB","url":"https://www.nps.gov/saga/index.htm","fullName":"Saint-Gaudens National Historical Park","parkCode":"saga","latitude":"43.4997238","longitude":"-72.37333969","states":["NH"],"designation":"National Historical Park"},{"NPS_id":"FAEF5684-83A4-4CF2-A701-60CF8D4014BD","url":"https://www.nps.gov/appa/index.htm","fullName":"Appalachian National Scenic Trail","parkCode":"appa","latitude":"40.41029575","longitude":"-76.4337548","states":["CT","GA","MA","MD","ME","NC","NH","NJ","NY","PA","TN","VA","VT","WV"],"designation":"National Scenic Trail"},{"NPS_id":"ECCA243E-109D-4D73-8546-B0A2553DD9E5","url":"https://www.nps.gov/dewa/index.htm","fullName":"Delaware Water Gap National Recreation Area","parkCode":"dewa","latitude":"41.12793491","longitude":"-74.94751173","states":["NJ","PA"],"designation":"National Recreation Area"},{"NPS_id":"73A512A3-807A-457C-8A3B-5862C9C28BBD","url":"https://www.nps.gov/elis/index.htm","fullName":"Ellis Island Part of Statue of Liberty National Monument","parkCode":"elis","latitude":"40.69946","longitude":"-74.0401","states":["NJ","NY"],"designation":"Part of Statue of Liberty National Monument"},{"NPS_id":"BBC5BE3F-E921-40B5-A850-F259D9FAF88C","url":"https://www.nps.gov/gate/index.htm","fullName":"Gateway National Recreation Area","parkCode":"gate","latitude":"40.56536246","longitude":"-73.9171087","states":["NY","NJ"],"designation":"National Recreation Area"},{"NPS_id":"5B1021C9-5F48-4747-B0E4-6F508FDF96AE","url":"https://www.nps.gov/greg/index.htm","fullName":"Great Egg Harbor River","parkCode":"greg","latitude":"39.3042","longitude":"-74.6497","states":["NJ"],"designation":""},{"NPS_id":"64FF65B7-0847-4495-9464-667CAFBF4D16","url":"https://www.nps.gov/lode/index.htm","fullName":"Lower Delaware National Wild and Scenic River","parkCode":"lode","latitude":"40.4000389","longitude":"-74.983737","states":["PA","NJ"],"designation":"National Wild and Scenic River"},{"NPS_id":"D68D9424-CD32-434F-88BF-3069ADFB2744","url":"https://www.nps.gov/morr/index.htm","fullName":"Morristown National Historical Park","parkCode":"morr","latitude":"40.7650755","longitude":"-74.53455122","states":["NJ"],"designation":"National Historical Park"},{"NPS_id":"D0F897A0-9545-4901-A1B8-7128E11A51FA","url":"https://www.nps.gov/pine/index.htm","fullName":"New Jersey Pinelands National Reserve","parkCode":"pine","latitude":"39.9384","longitude":"-74.625","states":["NJ"],"designation":"National Reserve"},{"NPS_id":"9604169F-6A23-4E70-937B-3BE7315590F2","url":"https://www.nps.gov/pagr/index.htm","fullName":"Paterson Great Falls National Historical Park","parkCode":"pagr","latitude":"40.91584645","longitude":"-74.18021494","states":["NJ"],"designation":"National Historical Park"},{"NPS_id":"BFE248C8-40CD-4DC8-AC07-AE61A0D81FF3","url":"https://www.nps.gov/edis/index.htm","fullName":"Thomas Edison National Historical Park","parkCode":"edis","latitude":"40.78549896","longitude":"-74.23821139","states":["NJ"],"designation":"National Historical Park"},{"NPS_id":"3D547E73-F0BF-4FEA-9CAC-9611D024E2FF","url":"https://www.nps.gov/waro/index.htm","fullName":"Washington-Rochambeau Revolutionary Route National Historic Trail","parkCode":"waro","latitude":"40.0958204557","longitude":"-74.8563515109","states":["MA","RI","CT","NY","NJ","PA","DE","MD","VA","DC"],"designation":"National Historic Trail"},{"NPS_id":"CD54150B-24F6-4B96-8D6F-B23AF92A70F2","url":"https://www.nps.gov/azru/index.htm","fullName":"Aztec Ruins National Monument","parkCode":"azru","latitude":"36.83682216","longitude":"-107.9999245","states":["NM"],"designation":"National Monument"},{"NPS_id":"E28CA30C-2D81-4394-81E9-67677C412115","url":"https://www.nps.gov/band/index.htm","fullName":"Bandelier National Monument","parkCode":"band","latitude":"35.77898596","longitude":"-106.3317124","states":["NM"],"designation":"National Monument"},{"NPS_id":"93BB79F9-D700-4202-B21C-B2354617A729","url":"https://www.nps.gov/cavo/index.htm","fullName":"Capulin Volcano National Monument","parkCode":"cavo","latitude":"36.78171096","longitude":"-103.9710427","states":["NM"],"designation":"National Monument"},{"NPS_id":"6FDE39B1-AB4A-4C9A-A5CD-4AF67601CD78","url":"https://www.nps.gov/cave/index.htm","fullName":"Carlsbad Caverns National Park","parkCode":"cave","latitude":"32.14089463","longitude":"-104.5529688","states":["NM"],"designation":"National Park"},